,municipio,fsq_id,distance,name,id_categoria,categoria,direccion,latitud,longitud
0,zarzalejo,f038ecadfc7e45cf918a52b7,68.0,Hotel Duque,13065.0,Restaurant,"Avenida de la Estacion, 65, 28293 Zarzalejo Comunidad de Madrid",40.539545,-4.163218
1,zarzalejo,a9b39a609ae347db2d0ea6c6,117.0,El Roble,13065.0,Restaurant,"Plaza del Llano del Soldado, 9, 28293 Zarzalejo Comunidad de Madrid",40.539899,-4.163608
2,zarzalejo,510fd6ffe4b0be8b48139796,309.0,Bar los Alamos,13003.0,Bar,"Avenida Estación, 37, 28293 Zarzalejo Comunidad de Madrid",40.539738,-4.159139
3,zarzalejo,13d37dea87e6481152fa42a8,392.0,La Parada Resto Bar,10000.0,Arts and Entertainment,"Avenida de la Estacion, 4, 28293 Zarzalejo Comunidad de Madrid",40.539882,-4.157773
4,zarzalejo,3b8b7068f0144222b54f131d,474.0,Asador Cruz Verde,13065.0,Restaurant,"Carretera Madrid-Ávila, Km 36, 28200 El Escorial Comunidad de Madrid",40.541742,-4.16707
5,zarzalejo,4d85fe3202eb54816a8c4ef5,476.0,La Higuera,13302.0,Mediterranean Restaurant,"Avenida de la Estación, 106, 28293 Zarzalejo Comunidad de Madrid",40.540664,-4.16798
6,zarzalejo,5bb7517e6336be002c2821e9,1772.0,Coté Café,13034.0,Café,"Calle del Venero, 6, 28293 Zarzalejo Comunidad de Madrid",40.546935,-4.180902
7,zarzalejo,4d2317775acaa35d9d6add35,1845.0,Restaurante la Posada,13065.0,Restaurant,"Plaza Constitución, 2, 28293 Zarzalejo Comunidad de Madrid",40.547367,-4.181568
8,zarzalejo,533ff52e498edb19c2e9aff6,95.0,Parque Pedro Rodríguez-Ponga,16037.0,Playground,"Avenida de la Estación, 45, Zarzalejo Comunidad de Madrid",40.539747,-4.163441
9,zarzalejo,4ed124af5c5c9528fa2230de,321.0,Pinar Zarzalejo,16037.0,Playground,Pinar,40.540691,-4.165816
10,villavieja-del-lozoya,4b63ffd9f964a520a79a2ae3,73.0,El Arco,13347.0,Tapas Restaurant,"Arco, 6, 28739 El Arco Comunidad de Madrid",41.006702,-3.671066
11,villaviciosa-de-odon,00e3b68f0e644627b21ca92d,243.0,El Baúl de Marla,17043.0,Clothing Store,"Avenida Príncipe de Asturias, 129, 28670 Villaviciosa de Odón Madrid",40.355997,-3.902459
12,villaviciosa-de-odon,4df85bd672da4e5fe27ddb84,279.0,Almansa Ropa,17043.0,Clothing Store,"Calle Carretas, 3, 28670 Villaviciosa de Odón Comunidad de Madrid",40.358372,-3.903915
13,villaviciosa-de-odon,953f6ab003dc40cb34feb146,380.0,jose picazo Grupo de Servicios,11170.0,Telecommunication Service,"Gran Va de Les Corts Catalanes, 206, 28670 Villaviciosa de Odón Madrid",40.359241,-3.904011
14,villaviciosa-de-odon,09ae07f449e64522f8bbf694,826.0,Todo Nenes,17042.0,Children's Clothing Store,"Avenida Quitapesares, 2, 28670 Villaviciosa de Odón Comunidad de Madrid",40.349628,-3.902137
15,villaviciosa-de-odon,4cf76993d3a8a1cd0aaed643,911.0,Barbarella Fashion,17043.0,Clothing Store,"Avenida Quitapesares, 33, 28670 Villaviciosa de Odón Comunidad de Madrid",40.350025,-3.895464
16,villaviciosa-de-odon,156275e090ff41aa00c6312d,1154.0,Emka Manufacturing,17043.0,Clothing Store,"Calle Luxemburgo, 24, 28670 Villaviciosa de Odón Madrid",40.364303,-3.910394
17,villaviciosa-de-odon,59c125aef8cbd413f9292151,1916.0,Semael,17043.0,Clothing Store,"Avenida de las Nieves, 15, 28935 Móstoles Comunidad de Madrid",40.349069,-3.880401
18,villaviciosa-de-odon,69be3ad211aa4d8e2bacd3b3,41.0,Mar de Odón,13065.0,Restaurant,"Calle Nueva, 15, 28670 Villaviciosa de Odón Comunidad de Madrid",40.357495,-3.900684
19,villaviciosa-de-odon,4c7a5a6a3badb1f7bbd95154,51.0,Gambrinus,13029.0,Brewery,"Calle Nueva, 18, 28670 Villaviciosa de Odón Comunidad de Madrid",40.356979,-3.900593
20,villaviciosa-de-odon,5605d370498ede7362b3664c,53.0,Khopa,13009.0,Cocktail Bar,"Calle Nueva, 20, 28670 Villaviciosa de Odón Comunidad de Madrid",40.356979,-3.900593
21,villaviciosa-de-odon,5843241c02b60e0ddc40bd6c,84.0,Makitake,13276.0,Sushi Restaurant,"Calle Carretas, 38, 28670 Villaviciosa de Odón Comunidad de Madrid",40.357423,-3.901173
22,villaviciosa-de-odon,554a706e498e353a3e053b6f,96.0,Detapas,13016.0,Lounge,"Calle Eras, 62, Villaviciosa de Odón Comunidad de Madrid",40.356564,-3.900614
23,villaviciosa-de-odon,58dbfd78b38b32129980f4c1,98.0,Mama Manuela,13007.0,Beer Garden,"Calle Carretas, 9, 28670 Villaviciosa de Odón Comunidad de Madrid",40.357712,-3.901205
24,villaviciosa-de-odon,4d9f856e8e8f224b9b32a656,142.0,Del Puente,10032.0,Night Club,"Calle Puente, 4, 28670 Villaviciosa de Odón Comunidad de Madrid",40.358456,-3.901354
25,villaviciosa-de-odon,3d9083196dec43c54cf6b11b,146.0,El Obrador,13002.0,Bakery,"Calle López Polín, 1, 28670 Villaviciosa de Odón Madrid",40.35848,-3.90119
26,villaviciosa-de-odon,5d92eba642c54eb086b62bef,170.0,El Atico de Villa,13065.0,Restaurant,"Avenida Gutiérrez Mellado, 1, 28670 Villaviciosa de Odón Comunidad de Madrid",40.355897,-3.898749
27,villaviciosa-de-odon,57dda0f1498e2a83058c5dda,185.0,El Rondon de Alex,13347.0,Tapas Restaurant,"Calle Carretas, 17, Villaviciosa de Odón Comunidad de Madrid",40.358159,-3.902167
28,villaviciosa-de-odon,4dfcb34c8877e9c4749386fe,199.0,La Casita,13345.0,Spanish Restaurant,"Plaza de la Constitución, 3, 28670 Villaviciosa de Odón Comunidad de Madrid",40.358461,-3.902117
29,villaviciosa-de-odon,4d7fede6551ea1cd841b11c5,201.0,100 Montaditos,13006.0,Beer Bar,"Calle Carretas Nº18, 28670 Villaviciosa de Odón Comunidad de Madrid",40.357947,-3.902409
30,villaviciosa-de-odon,5c780ad3835c9a0032e28463,213.0,Rodilla,13065.0,Restaurant,"Avenida Principe de Astúrias, 131, 28670 Villaviciosa de Odón Comunidad de Madrid",40.356311,-3.902328
31,villaviciosa-de-odon,4ec7a326e3007199153c4be6,228.0,Los Platos,13345.0,Spanish Restaurant,"Calle las Eras, 11, 28670 Villaviciosa de Odón Comunidad de Madrid",40.358326,-3.902633
32,villaviciosa-de-odon,4c547920f5f3d13a684336fa,260.0,Miraflores,13345.0,Spanish Restaurant,"Calle Carretas, 5, 28670 Villaviciosa de Odón Comunidad de Madrid",40.358504,-3.903018
33,villaviciosa-de-odon,53459c5c498ec5a6f160c043,279.0,Corcho's taberna,13065.0,Restaurant,"Calle Carretas, 1, 28670 Villaviciosa de Odón Comunidad de Madrid",40.358543,-3.903155
34,villaviciosa-de-odon,4b805322f964a520156830e3,292.0,El Pincho de Villa,13302.0,Mediterranean Restaurant,"Calle Mayor, 3, Villaviciosa de Odón Comunidad de Madrid",40.358845,-3.903105
35,villaviciosa-de-odon,4b9388dff964a520634734e3,297.0,Las Dos Castillas,13065.0,Restaurant,"Calle Jose Maurelo Tejera, 12, 28670 Villaviciosa de Odón Comunidad de Madrid",40.357754,-3.903714
36,villaviciosa-de-odon,4d51b38f07b1a090f4ba0c3c,306.0,O Lar de Obelix,13003.0,Bar,"Avenida Príncipe de Asturias, 91, 28670 Villaviciosa de Odón Comunidad de Madrid",40.354602,-3.900746
37,villaviciosa-de-odon,539c3edd498e50a50d1a0dda,306.0,All'Italiana,13064.0,Pizzeria,"Calle de Italia, 1, 28670 Villaviciosa de Odón Comunidad de Madrid",40.358295,-3.903641
38,villaviciosa-de-odon,4d322b292c76a143dad96dc7,312.0,El Puerto,13346.0,Paella Restaurant,"Eras, 10, 28670 Villaviciosa de Odón Comunidad de Madrid",40.358094,-3.903802
39,villaviciosa-de-odon,556ca7c0498ee69b0ebe261b,324.0,De cervezas y quesos,13039.0,Deli,"Calle Eras, 6, 28670 Villaviciosa de Odón Comunidad de Madrid",40.358133,-3.903939
40,villaviciosa-de-odon,4fee247ee4b085aeb2b991da,342.0,American Pizza Burger,13031.0,Burger Joint,"Avenida Príncipe de Asturias, 73, 28670 Villaviciosa de Odón Comunidad de Madrid",40.354235,-3.90044
41,villaviciosa-de-odon,8991ee1923464ddc0833f0a6,353.0,Oriente,13099.0,Chinese Restaurant,"Federico de la Torre, 6, 28670 Villaviciosa de Odón Madrid",40.359038,-3.90379
42,villaviciosa-de-odon,516995a4e4b031229dd64790,359.0,Restaurante Casa Feliz,13099.0,Chinese Restaurant,"Avenida del Principe de Asturias, 69, 28670 Villaviciosa de Odón Comunidad de Madrid",40.354145,-3.900247
43,villaviciosa-de-odon,21174e6ef1e948165687dc01,388.0,Kebap Villa,13288.0,Kebab Restaurant,"Avenida Príncipe de Asturias, 57, 28670 Villaviciosa de Odón Madrid",40.353892,-3.899971
44,villaviciosa-de-odon,4fa8343ce4b04895d8ee6883,430.0,Doner kebab Greecia,13288.0,Kebab Restaurant,"Avenida Principe de Asturias, 39, 28670 Villaviciosa de Odón Comunidad de Madrid",40.353588,-3.899638
45,villaviciosa-de-odon,56d0bc5dcd10af732892bca0,436.0,Mangia Bene,13064.0,Pizzeria,"Avenida Príncipe de Asturias, 37, 28670 Villaviciosa de Odón Comunidad de Madrid",40.353436,-3.899472
46,villaviciosa-de-odon,29b622001575444cdb1fcc57,455.0,La Cocina de Nana,13065.0,Restaurant,"Avenida Príncipe de Asturias, 31, 28670 Villaviciosa de Odón Comunidad de Madrid",40.353334,-3.899362
47,villaviciosa-de-odon,5f0a03fedececa51519933b5,506.0,Restaurante Villa Cazorla,13345.0,Spanish Restaurant,"Calle del Castillo, 14, 28670 Villaviciosa de Odón Comunidad de Madrid",40.356823,-3.894075
48,villaviciosa-de-odon,1b8f031459d643b5eb65cc92,578.0,Olar 2010,13003.0,Bar,"Calle San Lorenzo, 18, 28670 Villaviciosa de Odón Madrid",40.352539,-3.902757
49,villaviciosa-de-odon,ba655e55d22a4cfd8e1e7bb0,611.0,Villadeliciosa,12009.0,Education,"Calle Cueva de la Mora, 7, 28670 Villaviciosa de Odón Madrid",40.357086,-3.907439
50,villaviciosa-de-odon,5f72dc6bd8ba41f061ee55d4,611.0,L'Altro Mondo,13236.0,Italian Restaurant,"Calle de la Cueva de la Mora, 7, 28670 Villaviciosa de Odón Madrid",40.357086,-3.907439
51,villaviciosa-de-odon,4d32bf6feefa8cfa04333ab3,619.0,La Parada,13035.0,Coffee Shop,"Cueva de la Mora, 8, 28670 Villaviciosa de Odón Comunidad de Madrid",40.357364,-3.907553
52,villaviciosa-de-odon,228ec6982c7640ed3027549f,635.0,Zeng,13065.0,Restaurant,"Avenida Manuel Gutiérrez Mellado, s/n, 28670 Villaviciosa de Odón Madrid",40.352733,-3.895862
53,villaviciosa-de-odon,4c8a92e51eafb1f701897b35,648.0,El Rincón de Paco,13065.0,Restaurant,"Cueva de la Mora, 14, 28670 Villaviciosa de Odón Madrid",40.356963,-3.907873
54,villaviciosa-de-odon,52cddfda11d2093c7e6f94fc,680.0,Arte Pizza da Nicola,13064.0,Pizzeria,"Travesía de Sacedon, 2, 28670 Villaviciosa de Odón Comunidad de Madrid",40.357115,-3.908039
55,villaviciosa-de-odon,4fc9c262e4b0663d077362b6,702.0,Churrería el Vaillo,13035.0,Coffee Shop,"Calle Bispo, s/n, 28670 Villaviciosa de Odón Comunidad de Madrid",40.36017,-3.907681
56,villaviciosa-de-odon,c826ba6ce5754ca950fa0c13,714.0,Asador el Ternasco,13065.0,Restaurant,"Loc, 19, 28670 Villaviciosa de Odón Comunidad de Madrid",40.360146,-3.907844
57,villaviciosa-de-odon,5fc14710c8cc475c509a3899,722.0,The Canalla Club,13012.0,Hookah Bar,"Avenida Príncipe de Asturias, 94, 28670 Villaviciosa de Odón Comunidad de Madrid",40.359871,-3.908112
58,villaviciosa-de-odon,4cb9fa1d4352a1cd3a1890f5,762.0,Burger King,13031.0,Burger Joint,"Calle Florida, 3, 28670 Villaviciosa de Odón Comunidad de Madrid",40.350605,-3.901498
59,villaviciosa-de-odon,4fdb3842e4b0fcb93ee5f1d8,764.0,El Quinto Sabor,13065.0,Restaurant,"Avenida Quitapesares, 17, 28670 Villaviciosa de Odón Comunidad de Madrid",40.350496,-3.900242
60,villaviciosa-de-odon,5c8d4e1f250cab002ce83a23,788.0,Domino's Pizza,13064.0,Pizzeria,"Avenida Príncipe Asturias, 195, 28670 Villaviciosa de Odón Comunidad de Madrid",40.359801,-3.908983
61,villaviciosa-de-odon,14f53880997643493247fbce,804.0,Asador Marinero,13338.0,Seafood Restaurant,"Calle Madroño, 1, 28670 Villaviciosa de Odón Madrid",40.353101,-3.892569
62,villaviciosa-de-odon,4e14c4647d8b4c0d6311acb4,817.0,Cine el Castillo,10026.0,Indie Movie Theater,"Camino de Boadilla, s/n, 28670 Villaviciosa de Odón Comunidad de Madrid",40.364111,-3.904118
63,villaviciosa-de-odon,5b22bf47ea9840ea95000d85,818.0,Villagavaldon,13065.0,Restaurant,"Avenida Quitapesares, 74, 28670 Villaviciosa de Odón Madrid",40.35045,-3.89697
64,villaviciosa-de-odon,4ec49b2ece3e494b68799536,822.0,El Guijarral,13035.0,Coffee Shop,"Avenida Principe de Asturias, 6, 28670 Villaviciosa de Odón Madrid",40.352449,-3.892995
65,villaviciosa-de-odon,4d51b46107b1a0909dbf0c3c,850.0,Bar Restaurante Quitapesares,13338.0,Seafood Restaurant,"Calle Florida, 32, 28670 Villaviciosa de Odón Comunidad de Madrid",40.349726,-3.899875
66,villaviciosa-de-odon,1feb7e426f94436e7653de50,857.0,Servicios Hosteleros a Colectividades,13065.0,Restaurant,"Calle Florida, 3, 28670 Villaviciosa de Odón Madrid",40.349804,-3.90214
67,villaviciosa-de-odon,51a262027dd2ab3e9bb573cf,874.0,El Alambique,13345.0,Spanish Restaurant,"Calle Quitapesares, 33, Villaviciosa de Odón Comunidad de Madrid",40.350056,-3.896446
68,villaviciosa-de-odon,4fed68bde4b0f5b9d76b4fa2,350.0,Parque de las Margaritas,16032.0,Park,,40.356448,-3.904184
69,villaviciosa-de-odon,4fcb4a74e4b0a6e7151b91e1,422.0,Pinar del Castillo,16032.0,Park,Pinar,40.358165,-3.89535
70,villaviciosa-de-odon,503ba9e4e4b0105c0f87dbfc,710.0,Parque Vicente Ferrer,16032.0,Park,,40.358766,-3.908421
71,villaviciosa-de-odon,4eb9ce72f5b9ea8ad72b8677,792.0,Parque Antonio Machado,16032.0,Park,28670 Villaviciosa de Odón Comunidad de Madrid,40.354856,-3.908984
72,villaviciosa-de-odon,4f8c367de4b0af4d5076f36f,836.0,Parque Vaillo,16037.0,Playground,Villaviciosa de Odón Comunidad de Madrid,40.361322,-3.908654
73,villaviciosa-de-odon,51ffcb685019c1bb402374fd,1043.0,Matadero de Villaviciosa CQB ARISOFT,16037.0,Playground,28670 Villaviciosa de Odón Comunidad de Madrid,40.351365,-3.890769
74,villaviciosa-de-odon,4c7a6f88566db60c43e7470e,1626.0,Parque del Castillo,16032.0,Park,"Avenida del Castillo, 28670 Villaviciosa de Odón Comunidad de Madrid",40.357793,-3.881113
75,villaviciosa-de-odon,54e89b5d498e1348dd51f8ba,1747.0,Mi Mundo,16037.0,Playground,"Avenida de las Nieves, 35, 28935 Móstoles Comunidad de Madrid",40.350023,-3.881915
76,villarejo-de-salvanes,c929686d34f2425e18ba7f29,156.0,Modas Andyus,11145.0,Real Estate Service,"Calle Mayor, 3, 28590 Villarejo de Salvanés Madrid",40.168993,-3.27552
77,villarejo-de-salvanes,5994f1b8c32a4d8d0a2187f8,1820.0,Secisa,17043.0,Clothing Store,"Avenida Juan Carlos I Rey de España, 22, 28590 Villarejo de Salvanés Comunidad de Madrid",40.174718,-3.293634
78,villarejo-de-salvanes,4c2f18e77cc0c9b6bf1feb9a,45.0,Mesón la Tercia,13347.0,Tapas Restaurant,"Calle de las Tres Cruces, 2 (Calle Encomienda), 28590 Villarejo de Salvanés Comunidad de Madrid",40.167956,-3.273754
79,villarejo-de-salvanes,7482985cc3474721533cdf55,63.0,El Dorado,13003.0,Bar,"Iglesia, 9, 28590 Villarejo de Salvanés Comunidad de Madrid",40.168492,-3.274516
80,villarejo-de-salvanes,142db68fbc0047301fe26b5b,86.0,Cerveceria el Torreón,13003.0,Bar,"Calle de la Iglesia, 5, 28590 Villarejo de Salvanés Madrid",40.168321,-3.274893
81,villarejo-de-salvanes,503aeccca2ea481f999f3813,155.0,Martinez Garcia Sergio,13003.0,Bar,"Calle Mayor, 39, 28590 Villarejo Madrid",40.169632,-3.273118
82,villarejo-de-salvanes,4eda32d77ee5e8e3e69467f8,174.0,Restaurante Chino Lan,13072.0,Asian Restaurant,"Calle Jabonería, 1, Las Rozas Comunidad de Madrid",40.169768,-3.272984
83,villarejo-de-salvanes,c1651fe9b79d47fbf17902a9,179.0,Asador Juan de Austria,13065.0,Restaurant,"Encomienda, 66, 28590 Villarejo de Salvanés Madrid",40.168884,-3.275871
84,villarejo-de-salvanes,4e14ad22e4cd473c9692170b,194.0,Casa Pichi,13003.0,Bar,"Calle de Lepanto, 9, 28590 Villarejo de Salvanés Comunidad de Madrid",40.168208,-3.276082
85,villarejo-de-salvanes,5e51a6ada8a7ac0008bd2e22,204.0,La Pesquera Villarejo,13065.0,Restaurant,"Convento, 1, 28590 Villarejo de Salvanés Comunidad de Madrid",40.168009,-3.276243
86,villarejo-de-salvanes,5144a59ae4b092570b06003f,215.0,El Rincón de Higuerlop,13035.0,Coffee Shop,"Victoria de Lepanto, 2, Villarejo de Salvanés Comunidad de Madrid",40.168048,-3.276379
87,villarejo-de-salvanes,4e0e6414d22d8582bdbf191d,222.0,La Romana,13003.0,Bar,"Calle de la Victoria, 4, 28590 Villarejo de Salvanés Comunidad de Madrid",40.16815,-3.276488
88,villarejo-de-salvanes,9684b691de7b4e94987fff4e,262.0,Agustin Garcia Fraile Panadero,13065.0,Restaurant,"Calle Encomienda de la, 30, 28590 Villarejo de Salvanés Madrid",40.166592,-3.271824
89,villarejo-de-salvanes,1ded3a397266409c793873e1,279.0,Bar los Cazadores,13003.0,Bar,"Calle Mayor, 74, 28590 Villarejo de Salvanés Comunidad de Madrid",40.170345,-3.271826
90,villarejo-de-salvanes,5103b183e4b02d11ce110466,419.0,Tentadero,13003.0,Bar,"Calle Samuel Baltes, 38, 28590 Villarejo de Salvanés Comunidad de Madrid",40.169304,-3.27866
91,villarejo-de-salvanes,6e508670dbc04a74644db044,674.0,Restaurante Anesan,13065.0,Restaurant,"Viso, 13, 28590 Villarejo de Salvanés Madrid",40.168322,-3.281817
92,villarejo-de-salvanes,e18f397f94dd1b374ec23951,704.0,Restaurante el Asador de Villarejo,13065.0,Restaurant,"Calle Encomienda, 68, 28590 Villarejo de Salvanés Comunidad de Madrid",40.163776,-3.268152
93,villarejo-de-salvanes,502d4e6ee4b0c65b49c9ae10,846.0,Cafeteria Restaurante Centra,13065.0,Restaurant,"Carretera Madrid-Valencia, Km 50, 28590 Villarejo de Salvanés Comunidad de Madrid",40.167164,-3.283755
94,villarejo-de-salvanes,5efacdb01fc346945c96580b,879.0,Pizza-Burger Ventura,13003.0,Bar,"Calle Amistad, 1, 28590 Villarejo de Salvanés Comunidad de Madrid",40.172327,-3.28293
95,villarejo-de-salvanes,51be268b498ed2fdeafc889d,1000.0,Ventura,13064.0,Pizzeria,"Jardín de Villarejo, 1, 28590 Villarejo de Salvanés Comunidad de Madrid",40.172304,-3.283092
96,villarejo-de-salvanes,4dbfea78cda12687c83e0b87,1059.0,Restaurante Tres Treboles,13065.0,Restaurant,"Autovia Este, 49, 28590 Villarejo de Salvanés Comunidad de Madrid",40.166587,-3.286131
97,villarejo-de-salvanes,502c1d0f83025ae48dff342a,526.0,Parque Infantil,16037.0,Playground,"c/ Viso, 28590 Villarejo de Salvanés Comunidad de Madrid",40.169294,-3.279958
98,villanueva-de-perales,c26c073b37b04baf61cef7b1,131.0,Restaurante el Asador Avileño,13065.0,Restaurant,"San Antonio, 21, 28609 Villanueva de Perales Comunidad de Madrid",40.345621,-4.10041
99,villanueva-del-pardillo,2e762a81359f449b3641a8db,1944.0,Promovat,11006.0,Audiovisual Service,"Calle Castillo de Malpica, 6, 28692 Villanueva de la Cañada Madrid",40.483464,-3.942625
100,villanueva-del-pardillo,5150160ce4b08b309c38b3a5,315.0,Benetton,17043.0,Clothing Store,"Calle Camilo Jose Cela, N, 22, 28230 Las Rozas Comunidad de Madrid",40.49632,-3.963258
101,villanueva-del-pardillo,5417d40e16244349ad5c1509,503.0,Cannes,17043.0,Clothing Store,"Calle Concepción, 29, 28229 Villanueva del Pardillo Madrid",40.490415,-3.960587
102,villanueva-del-pardillo,4bec4a0bb68520a124e61187,194.0,D'Tapas,13003.0,Bar,"Avenida Juan Carlos I Nº3 (calle del campo), 28229 Villanueva del Pardillo Comunidad de Madrid",40.493272,-3.960773
103,villanueva-del-pardillo,4beee9d4e24d20a1b3977314,217.0,Mis Delicias,13002.0,Bakery,"Avenida Juan Carlos I, 66 (severo ochoa), 28229 Villanueva del Pardillo Comunidad de Madrid",40.494882,-3.962632
104,villanueva-del-pardillo,c6d947ac6e4e4c2963310af2,361.0,Bravopalacios,13064.0,Pizzeria,"Calle Aladierna, s/n, 28229 Villanueva del Pardillo Madrid",40.491669,-3.960062
105,villanueva-del-pardillo,5a393fb08ad62e72118393e8,382.0,Taberna Vaca Lucía,13065.0,Restaurant,"Avenida Juan Carlos I, 5, 28229 Villanueva del Pardillo Comunidad de Madrid",40.491869,-3.957907
106,villanueva-del-pardillo,4d9c11caf587721eb50b381e,396.0,La Historia,13003.0,Bar,"Calle Míster Lodge, 21 (Calle Mister Lodge), 28229 Villanueva del Pardillo Comunidad de Madrid",40.49165,-3.960991
107,villanueva-del-pardillo,4e2dc122483bb05f05b5fe12,425.0,Telepizza,13064.0,Pizzeria,"Aladierna, s/n, 28229 Villanueva del Pardillo Comunidad de Madrid",40.491076,-3.959697
108,villanueva-del-pardillo,4be6bc25bcef2d7fdb6405e5,440.0,La Cepa,13003.0,Bar,"Avenida Juan Carlos I, 15, 28229 Villanueva del Pardillo Comunidad de Madrid",40.495816,-3.96508
109,villanueva-del-pardillo,4da83198cda119a2c8f725b5,457.0,Soho Wok & Grill,13099.0,Chinese Restaurant,"Calle Jaral, 1, 28229 Villanueva del Pardillo Comunidad de Madrid",40.490846,-3.959256
110,villanueva-del-pardillo,58c2bd88d8b0ed06f99498fa,488.0,Bar Restaurante la Espuma,13003.0,Bar,"Calle Benjamin, 2, 28229 Villanueva del Pardillo Comunidad de Madrid",40.491224,-3.963088
111,villanueva-del-pardillo,4eba803693ade58bee9a0b1b,517.0,La Fragua,13049.0,Diner,"Calle Concepcion, 29, 28229 Villanueva del Pardillo Comunidad de Madrid",40.490422,-3.961735
112,villanueva-del-pardillo,a0c188ad8ed04fcb8cecf603,529.0,Pescaderia Marcos,13039.0,Deli,"Avenida Madrid, 25, 28229 Villanueva del Pardillo Comunidad de Madrid",40.490217,-3.961131
113,villanueva-del-pardillo,12b39f3699da4ea28e8fde18,529.0,Soho Wok,13263.0,Japanese Restaurant,"Avenida Madrid, s/n, 28229 Villanueva del Pardillo Madrid",40.490229,-3.961049
114,villanueva-del-pardillo,5b4a59bb9e3b65002c39c6bb,532.0,Restaurante Bocanegra,13065.0,Restaurant,"Avenida San Pablo, 2, 28229 Villanueva del Pardillo Comunidad de Madrid",40.490607,-3.957284
115,villanueva-del-pardillo,4c88e3e4584c76b0d03fed58,540.0,La Spuma,13345.0,Spanish Restaurant,"Calle Santa Ana (C. San Pedro), 28229 Villanueva del Pardillo Comunidad de Madrid",40.490139,-3.958861
116,villanueva-del-pardillo,7908bdd0aae64588fe6a631c,561.0,La Espumosa,13065.0,Restaurant,"San Pedro, 1, 28229 Villanueva del Pardillo Madrid",40.490047,-3.958285
117,villanueva-del-pardillo,5e49f4c459c3910008201e0f,566.0,K´talo Gastro Market,13347.0,Tapas Restaurant,"Calle San Pedro, 1, 28229 Villanueva del Pardillo Comunidad de Madrid",40.489999,-3.958613
118,villanueva-del-pardillo,4c38cf0e3849c9281c2bc0b1,589.0,The Shannon,13018.0,Pub,"Cno. Real, 20, 28229 Villanueva del Pardillo Comunidad de Madrid",40.494181,-3.966993
119,villanueva-del-pardillo,59184e0069e77b035cad8e39,603.0,Casa Maruja,13003.0,Bar,"Plaza Mayor, 10 (Plaza Mayor), 28229 Villanueva del Pardillo Comunidad de Madrid",40.490425,-3.964113
120,villanueva-del-pardillo,022ffc67643042ff3df97d07,621.0,K´talo Gastro Market,13347.0,Tapas Restaurant,"Calle Adolfo Suárez Plaza Mayor, 1, 28229 Villanueva del Pardillo Comunidad de Madrid",40.49021,-3.963973
121,villanueva-del-pardillo,e1167050f32642fbe672fc1e,625.0,Las Doce y Cuarto,13065.0,Restaurant,"Camino Real, 20, 28229 Villanueva del Pardillo Madrid",40.497023,-3.966878
122,villanueva-del-pardillo,51c751c8498e94fd0695c0a9,638.0,La Tertulia,13065.0,Restaurant,"Calle Santo Tomás, 2, 28229 Villanueva del Pardillo Comunidad de Madrid",40.489945,-3.963777
123,villanueva-del-pardillo,1f35795301f94e27e47c99c1,698.0,El Porche,13003.0,Bar,"Calle Recaudacion, 1, 28229 Villanueva del Pardillo Comunidad de Madrid",40.489008,-3.962941
124,villanueva-del-pardillo,4ef8307d9a52c90841b7e832,703.0,La Posada del Fraile,13065.0,Restaurant,"Calle Jaral, 12, 28229 Villanueva del Pardillo Comunidad de Madrid",40.491109,-3.966667
125,villanueva-del-pardillo,dedc0c881a754985fec68189,757.0,O'buraquiño Rias Baixas,11036.0,Entertainment Service,"Avenida de San Pablo, 2, 28229 Villanueva del Pardillo Madrid",40.48896,-3.955671
126,villanueva-del-pardillo,5c98e86fad1789002cb4ead7,801.0,Vaca Lucia,13065.0,Restaurant,"Real, 25, 28229 Villanueva del Pardillo Comunidad de Madrid",40.48783,-3.961745
127,villanueva-del-pardillo,596138ee2f97ec37ca9f6457,804.0,El Rincón del Pardillo,13006.0,Beer Bar,"Calle Procesiones, 4, 28229 Villanueva del Pardillo Comunidad de Madrid",40.487877,-3.963031
128,villanueva-del-pardillo,3653ec7206c24ae391a086d4,832.0,Cafeteria Dayser,13035.0,Coffee Shop,"Avenida Madrid, 2, 28229 Villanueva del Pardillo Madrid",40.488251,-3.964486
129,villanueva-del-pardillo,4c437584dd1f2d7fb68a7ef9,869.0,Pizza Giardino,13064.0,Pizzeria,"Calle Pablo Tejera, s/n (Pablo Tejera 20), 28229 Villanueva del Pardillo Comunidad de Madrid",40.486432,-3.965247
130,villanueva-del-pardillo,d9c1c46551894836f5330016,949.0,Restaurante Costa Arrocería,13065.0,Restaurant,"Carretera Majadahonda a Villanueva del Pardillo, Km 3, 28229 Majadahonda Madrid",40.487771,-3.966144
131,villanueva-del-pardillo,54ad52af498e4a4e79ad7e82,1015.0,Carne y Sal,13003.0,Bar,"Calle Mallorca, s/n, 28229 Villanueva del Pardillo Comunidad de Madrid",40.487245,-3.966518
132,villanueva-del-pardillo,4bdb308bc79cc9281b8f81e9,7237.0,El Rocio,13338.0,Seafood Restaurant,"Plaza Mayor, 6, 28231 Las Rozas Comunidad de Madrid",40.490551,-3.964061
133,villanueva-del-pardillo,50817da7e4b09e409b84eeab,337.0,Fiestas de Villanueva del Pardillo,16037.0,Playground,,40.493946,-3.963791
134,villanueva-del-pardillo,cfbe75a61929499e28e0283c,582.0,Ocio Infantil,16037.0,Playground,"Gral. Mola, 13, 28229 Villanueva del Pardillo Comunidad de Madrid",40.490092,-3.963178
135,villanueva-del-pardillo,4e5d2e1088771beefa9570aa,596.0,Parque de al Lado del Rio,16032.0,Park,Comunidad de Madrid,40.494181,-3.966993
136,villanueva-del-pardillo,4f8162b6e4b0ef20990bae3f,599.0,Parque Antonio Machado,16037.0,Playground,Villanueva del Pardillo Comunidad de Madrid,40.494118,-3.967019
137,villanueva-del-pardillo,4f5cba9ee4b0090c0ab5a08e,695.0,Parque del Reloj,16032.0,Park,"Avda. De Madrid, Villanueva del Pardillo Comunidad de Madrid",40.48885,-3.958019
138,villanueva-del-pardillo,5b046b0fb9a5a8002c910638,1339.0,Parque de la Tirolina,16032.0,Park,28229 Villanueva del Pardillo Comunidad de Madrid,40.483016,-3.962455
139,villanueva-de-la-canada,8a37bc3aaad247e48532f735,1005.0,Magicfilms Productions,11006.0,Audiovisual Service,"Calle Méjico, 7, 28210 Valdemorillo Madrid",40.445398,-3.991147
140,villanueva-de-la-canada,f497e467bc594c6c1c87d3ff,244.0,La Tienda Erase Una Vez,17043.0,Clothing Store,"Real, 13, 28691 Villanueva de la Cañada Madrid",40.448378,-4.005244
141,villanueva-de-la-canada,084df1c0873b463710f0ecaa,1293.0,Los Tesoros del Bebé,17043.0,Clothing Store,"Avenida de la Rioja, 43, 28691 Villanueva de la Cañada Madrid",40.436115,-3.998169
142,villanueva-de-la-canada,371b24e453404769632acdd5,48.0,Vel Vet Café-Lounge,13016.0,Lounge,"Calle Cristo, 14, 28691 Villanueva de la Cañada Madrid",40.447556,-4.002442
143,villanueva-de-la-canada,53b95188498e1170f3202265,56.0,Arrocería Marisquería Ruivo,13065.0,Restaurant,"Calle Cristo, 11, 28691 Villanueva de la Cañada Comunidad de Madrid",40.447686,-4.003155
144,villanueva-de-la-canada,4c17489d96040f47d21074a5,90.0,Pentu,13003.0,Bar,"Calle del Molino, 1 (C. Cristo), 28691 Villanueva de la Cañada Comunidad de Madrid",40.447691,-4.001925
145,villanueva-de-la-canada,5a8827b0061b510741fd95c9,94.0,Vaca Lucia,13345.0,Spanish Restaurant,"Plaza la Plazuela, 2, 28691 Villanueva de la Cañada Comunidad de Madrid",40.44686,-4.00396
146,villanueva-de-la-canada,04b4447081224470c4c60f26,94.0,Casa Faustino,13065.0,Restaurant,"Plazuela, 1, 28691 Villanueva de la Cañada Madrid",40.44672,-4.003711
147,villanueva-de-la-canada,4dc91da3e4cdf14b85570b13,145.0,Burger King,13031.0,Burger Joint,"Molino, 5 (C/ Cristo), 28691 Villanueva de la Cañada Comunidad de Madrid",40.4478,-4.001189
148,villanueva-de-la-canada,4eddf4fa8b817316107a7066,149.0,Cervecería Real,13003.0,Bar,"Calle Estrella, 1, 28691 Villanueva de la Cañada Comunidad de Madrid",40.446674,-4.004421
149,villanueva-de-la-canada,5b86558b46e1b60039e79891,162.0,La Hermandad,13347.0,Tapas Restaurant,"Calle Barrancas, 5, 28691 Villanueva de la Cañada Comunidad de Madrid",40.448482,-4.003743
150,villanueva-de-la-canada,4d77f26dbc888cfac56af273,164.0,Kebabish villanueva,13145.0,Fast Food Restaurant,"Calle del Real, 2, 28691 Villanueva de la Cañada Comunidad de Madrid",40.44847,-4.003824
151,villanueva-de-la-canada,4be2bf771dd22d7f06af94bd,164.0,El Hormiguero,13018.0,Pub,"Barrancas, 1, 28691 Villanueva de la Cañada Comunidad de Madrid",40.44847,-4.003824
152,villanueva-de-la-canada,b92614a820f74462840f4da5,164.0,Bar Que Punto,13003.0,Bar,"Calle Barranca, 1, 28691 Villanueva de la Cañada Madrid",40.44847,-4.003824
153,villanueva-de-la-canada,51a21bb0498ed4464fd2ce48,174.0,Pura Vida,13065.0,Restaurant,"Barranca, 1 (Empredada), Villanueva de la Cañada Comunidad de Madrid",40.448509,-4.003962
154,villanueva-de-la-canada,4be2bf0a660ec9289418ca3b,174.0,La Caña de España,13003.0,Bar,"Calle del Viento, 2-8, 28691 Villanueva de la Cañada Comunidad de Madrid",40.448509,-4.003962
155,villanueva-de-la-canada,a4c94d6174d44a934abdcdfe,185.0,La Zahora Comidas,13145.0,Fast Food Restaurant,"Calle Empedrada, 15, 28691 Villanueva de la Cañada Madrid",40.448323,-4.004423
156,villanueva-de-la-canada,4bfa82e5bc869521ddeb7a6b,205.0,Natur & Sushi,13276.0,Sushi Restaurant,"Calle del Cristo N24, 28691 Villanueva de la Cañada Comunidad de Madrid",40.447909,-4.000454
157,villanueva-de-la-canada,2f7af4da561649f3f3d4ab23,206.0,All Pizza,13064.0,Pizzeria,"Jacinto Benavente, 2, 28691 Villanueva de la Cañada Comunidad de Madrid",40.448863,-4.004351
158,villanueva-de-la-canada,4d47186b0349224bd6ba144f,218.0,Casa Gabriel,13345.0,Spanish Restaurant,"Calle Solet, 1, Villanueva de la Cañada Castellón",40.446261,-4.004824
159,villanueva-de-la-canada,4d04d88a30a58cfa300ca2e7,219.0,La Partida,13347.0,Tapas Restaurant,"Calle Velázquez, 2, 28691 Villanueva de la Cañada Comunidad de Madrid",40.445769,-4.004569
160,villanueva-de-la-canada,06cc598f4911497e7811ca11,236.0,Cerveceria Marisqueria Costimar,13065.0,Restaurant,"Velazquez, 5, 28691 Villanueva de la Cañada Madrid",40.445783,-4.00487
161,villanueva-de-la-canada,4fcb2a8be4b068d41fdff50e,244.0,Churrería Puerta del Sol,13034.0,Café,"Calle Real, 29, 28691 Villanueva de la Cañada Comunidad de Madrid",40.448378,-4.005244
162,villanueva-de-la-canada,4c9325ea911b8cfa7d5df3b5,244.0,Allpizza,13064.0,Pizzeria,"Jacinto Benavente, 2, 28691 Villanueva de la Cañada Comunidad de Madrid",40.449028,-4.004435
163,villanueva-de-la-canada,55567d97498ea9870e3108e2,245.0,Asador PanXon,13338.0,Seafood Restaurant,"Calle Velázquez, 5, 28691 Villanueva de la Cañada Comunidad de Madrid",40.445568,-4.004729
164,villanueva-de-la-canada,136db940cac34e7f1b200d4f,245.0,Costimar,13338.0,Seafood Restaurant,"Calle Real, 1, 28691 Villanueva de la Cañada Madrid",40.445568,-4.004729
165,villanueva-de-la-canada,50fbeb04e4b0c867304c46fc,263.0,La Campesina,13002.0,Bakery,"Calle Real, 31, Villanueva de la Cañada Comunidad de Madrid",40.448327,-4.005188
166,villanueva-de-la-canada,54b13e54498e143afea2ef54,280.0,Pucheros y Vinos,13065.0,Restaurant,"Calle Jacinto Benavente, 7, 28691 Villanueva de la Cañada Comunidad de Madrid",40.448916,-4.004789
167,villanueva-de-la-canada,615f39e1dc69316ea1dddca6,319.0,Plaza del Pollito Pio,13055.0,Fried Chicken Joint,"Calle Cristo, 30, 28691 Villanueva de la Cañada Comunidad de Madrid",40.448039,-3.999172
168,villanueva-de-la-canada,4d66dddb1658721e9345cc04,320.0,Cervecería el Viajero,13029.0,Brewery,"Calle Olvido, 2, 28691 Villanueva de la Cañada Comunidad de Madrid",40.448786,-4.006071
169,villanueva-de-la-canada,57801a19cd10e88167e7faf9,326.0,La Dublu,13003.0,Bar,"Calle Cristo Numero, 30, Villanueva de la Cañada Comunidad de Madrid",40.448112,-3.998681
170,villanueva-de-la-canada,53ab0c48498e1e9a99e55c0a,336.0,Cafe Concierto Tesis,13003.0,Bar,"Calle Real, 79 (Calle Eras de Móstoles), 28691 Villanueva de la Cañada Comunidad de Madrid",40.444253,-4.003668
171,villanueva-de-la-canada,4d627125196ba09390583056,359.0,Lagartijo,13003.0,Bar,"Calle Jacinto Benavente, 17, 28691 Villanueva de la Cañada Comunidad de Madrid",40.449698,-4.005076
172,villanueva-de-la-canada,5f628846fb6444dff77f387f,382.0,Jardin,13099.0,Chinese Restaurant,"Calle Arquitecto Juan de Herrera, 2, 28691 Villanueva de la Cañada Madrid",40.443903,-4.004044
173,villanueva-de-la-canada,cdb45818a19c492f0a17d417,393.0,La Tertulia,13035.0,Coffee Shop,"Calle Arquitecto Juan de Herrera, 4, 28691 Villanueva de la Cañada Comunidad de Madrid",40.443816,-4.004234
174,villanueva-de-la-canada,6351afe8db1940beb3843ba7,407.0,Kebab villanueva,13065.0,Restaurant,"Calle Real, 7, 28691 Villanueva de la Cañada Madrid",40.449981,-4.005955
175,villanueva-de-la-canada,4c3b8c1fdef90f47861ffe2d,415.0,100 Montaditos,13003.0,Bar,"Calle Cristo, 35 (C. Rocinante), 28691 Villanueva de la Cañada Comunidad de Madrid",40.448474,-3.998223
176,villanueva-de-la-canada,5a7eea51535d6f1c35a5b92c,418.0,La Huella,13003.0,Bar,"Calle Cristo Nº36, 28691 Villanueva de la Cañada Comunidad de Madrid",40.448208,-3.998027
177,villanueva-de-la-canada,ef1b2121d1504fa992981692,425.0,Cañada 98,13065.0,Restaurant,"Calle Cristo, 38, 28691 Villanueva de la Cañada Madrid",40.448221,-3.997945
178,villanueva-de-la-canada,4d1d897616cfb60cc0484061,429.0,Villa Cañada,13035.0,Coffee Shop,"Calle Real, 2, 28691 Villanueva de la Cañada Comunidad de Madrid",40.449983,-4.006338
179,villanueva-de-la-canada,4c069ac10ed3c9287149787d,429.0,Costimar Tapas,13347.0,Tapas Restaurant,"Calle Real, 6 (C. Simon Bolivar), 28691 Villanueva de la Cañada Comunidad de Madrid",40.449983,-4.006338
180,villanueva-de-la-canada,74a28ca824cc44117e68507d,429.0,Villa Cañada,13070.0,Argentinian Restaurant,"Real, 2, 28691 Villanueva de la Cañada Comunidad de Madrid",40.449983,-4.006338
181,villanueva-de-la-canada,4d4869e4564e224b00c3dbcd,448.0,Piazza Fellini,13236.0,Italian Restaurant,"Calle Real, 1, 28691 Villanueva de la Cañada Comunidad de Madrid",40.450372,-4.006099
182,villanueva-de-la-canada,5aa81a9e2a7ab673f083e651,448.0,Macondo,13006.0,Beer Bar,"Calle Cristo, 37 (Avenida De La Dehesa), 28691 Villanueva de la Cañada Comunidad de Madrid",40.448609,-3.997706
183,villanueva-de-la-canada,4d0e13dabe6d6ea8717708b5,528.0,De Gustibus,13236.0,Italian Restaurant,"Calle Camargo, 2, 28691 Villanueva de la Cañada Comunidad de Madrid",40.450854,-4.006818
184,villanueva-de-la-canada,5ccd8c1570a54bdb8728661a,556.0,Ideah,13065.0,Restaurant,"Calle Monasterio de Leyre, 37, 28691 Villanueva de la Cañada Madrid",40.451349,-3.999094
185,villanueva-de-la-canada,5f10a5c690a02b480c170373,850.0,Domino's Pizza,13064.0,Pizzeria,"Calle Navarra, 10, 28691 Villanueva de la Cañada Madrid",40.439622,-4.001536
186,villanueva-de-la-canada,4d5542b6143ca093812dadfc,869.0,La Vieja Fragata,13065.0,Restaurant,"Navarra, 9, 28691 Villanueva de la Cañada Comunidad de Madrid",40.439269,-4.00153
187,villanueva-de-la-canada,4c99bd19d4b1b1f72919ca35,916.0,La Ruta Real,13345.0,Spanish Restaurant,"Serrania de Ronda, 7, 28691 Villanueva de la Cañada Comunidad de Madrid",40.439179,-4.003332
188,villanueva-de-la-canada,4c8c036a509e37046d862f55,577.0,Arevalo's Park,16032.0,Park,Arévalo,40.452004,-4.005417
189,villanueva-de-la-canada,4d60d40ed7206ea870c9f9f1,739.0,Pinar de la Cañada,16033.0,Dog Park,Cañada,40.451747,-3.996396
190,villanueva-de-la-canada,4e0cf1a08877936cb3f7187d,789.0,El Parque del Verano,16032.0,Park,28691 Villanueva de la Cañada Comunidad de Madrid,40.453012,-3.997402
191,villanueva-de-la-canada,5c61a3ceb9a5a8002c84be45,803.0,Parque Infantil Avda Metepec,16037.0,Playground,"Avenida Metepec 2B, 28691 Villanueva de la Cañada Comunidad de Madrid",40.445388,-3.993606
192,villanueva-de-la-canada,4d5ac6f1f8ff236a08cfd94a,857.0,Parque del Heiser,16033.0,Dog Park,,40.452928,-3.995979
193,villanueva-de-la-canada,5d7bcc3069a1450008247016,1280.0,Parque Infantil,16037.0,Playground,"Avenida De Castilla yLeón, 28691 Villanueva de la Cañada Comunidad de Madrid",40.436487,-3.997247
194,villamantilla,4171a826230242bb9cccd3d3,326.0,Maycoll Uniformes,17043.0,Clothing Store,"Calle Cedros, 1, 28609 Villamantilla Comunidad de Madrid",40.344616,-4.128031
195,villamantilla,5eea0fe0091b530008739d9d,514.0,Confecciones Maycoll,17043.0,Clothing Store,"Calle de los Cedros, 1, 28609 Villamantilla Comunidad de Madrid",40.337563,-4.131035
196,villamantilla,e5e17e6e047c40f9bfb08eab,511.0,Casa las Meigas,13065.0,Restaurant,"Plaza España, 9, 28609 Villamantilla Madrid",40.337563,-4.131035
197,villamantilla,4d69070d1b63a1cd921f3a2d,606.0,La Cueva de Villamantilla,13026.0,BBQ Joint,"Paseo de San Antonio, s/n, 28609 Villamantilla Comunidad de Madrid",40.336467,-4.130877
198,villamanta,4c4ae6aa959220a10445c70e,114.0,Bar Pepe,10032.0,Night Club,"Avenida del Generalisimo, 10, 28610 Villamanta Comunidad de Madrid",40.298285,-4.109881
199,villamanta,4c4aed829e6dbe9a507a460b,116.0,Restaurante Casa Judas,13345.0,Spanish Restaurant,"Avenida del Generalisimo, 13, 28610 Villamanta Comunidad de Madrid",40.298107,-4.109496
200,villamanrique-de-tajo,59bd10284186867189850394,327.0,Parque Fluvial Villamanrique de Tajo,16032.0,Park,28598 Villamanrique de Tajo Comunidad de Madrid,40.065794,-3.239405
201,villalbilla,268b27d8862540b4da86d3cf,67.0,Tahona San Antonio,13002.0,Bakery,"Calle Plazuela, 12, 28810 Villalbilla Madrid",40.432385,-3.299575
202,villalbilla,4d441f413616b60cc1d8e0c2,87.0,Restaurante Terraza Cruz,13007.0,Beer Garden,"Calle la Plazuela, 9, 28810 Villalbilla Comunidad de Madrid",40.432351,-3.299819
203,villalbilla,b8f336b69cb840dad15d8338,264.0,Stella Food & Fun,13064.0,Pizzeria,"Calle Alcalá 47, 28810 Villalbilla Comunidad de Madrid",40.433451,-3.301566
204,villalbilla,857be1154d7f49793b1fee49,1425.0,La Cabaña del Baztan,13338.0,Seafood Restaurant,"Carretera Valverde de Alcalá, 8, 28514 Nuevo Baztán Madrid",40.419548,-3.299553
205,villalbilla,5aedc7102b984400391258b9,1465.0,Bar la Solana,13003.0,Bar,"Calle Mayor, 1, 28812 Valverde de Alcalá Comunidad de Madrid",40.419114,-3.298898
206,villalbilla,5c2229e2f427de002c86d4e9,321.0,Parque de la Hontanilla,16032.0,Park,28810 Villalbilla Comunidad de Madrid,40.431979,-3.295011
207,villa-del-prado,3e50e25e11994665624d6d6f,142.0,Flover,17043.0,Clothing Store,"Calle Jose Antonio, 19, 28630 Villa del Prado Madrid",40.275219,-4.304477
208,villa-del-prado,600c457b21707240d6e50003,307.0,Miranda Villa del Prado,17043.0,Clothing Store,"Avenida de la Constitución, 32, 28630 Villa del Prado Comunidad de Madrid",40.278931,-4.306472
209,villa-del-prado,32eb1543c6c740d85952d3a1,114.0,La Favorita,13236.0,Italian Restaurant,"Plaza Mayor, 10, Villa del Prado Madrid",40.276384,-4.306143
210,villa-del-prado,21f0eb0423734305656aacf0,387.0,Mesón Restaurante el Molino,13065.0,Restaurant,"Avenida del Generalísimo, 66, 28630 Villa del Prado Comunidad de Madrid",40.279107,-4.301801
211,villa-del-prado,4dbc0b714df044e524d8ee56,454.0,El Extremeño,13345.0,Spanish Restaurant,"Avenida del Generalisimo, 78, 28630 Villa del Prado Comunidad de Madrid",40.279582,-4.300227
212,villa-del-prado,55df240e498ed0797683bd86,492.0,Restaurante Zaranda,13065.0,Restaurant,"Calle Jose Miguel del Castillo, 22, 28630 Villa del Prado Comunidad de Madrid",40.276049,-4.299002
213,villaconejos,5e314e4a70e35a000737f487,155.0,Abelarda Moda Infantil,17042.0,Children's Clothing Store,"Calle Puente Largo, 14, 28360 Villaconejos Comunidad de Madrid",40.103659,-3.486662
214,villaconejos,fad22325be874ed2824b974f,23.0,"Sanchez Pacheco, a",13003.0,Bar,"Plaza Mayor, 12, 28360 Villaconejos Madrid",40.103869,-3.484824
215,villaconejos,5fc8d69f67a17e3b7f8c7699,66.0,La Cueva del Monje,13065.0,Restaurant,"Calle Emilio de la Tía Fidela, 4, 28360 Villaconejos Comunidad de Madrid",40.103903,-3.485799
216,villaconejos,5126da939f4d462dad33d64c,118.0,Taberna el Coso,13003.0,Bar,"Calle Iglesia, 15, Villaconejos Madrid",40.104047,-3.486423
217,villaconejos,50df05d2e4b0e3d2b9f3c500,127.0,La Cueva del Monje,13065.0,Restaurant,"Calle Emilio de la Tía Fidela, 4, 28360 Villaconejos Comunidad de Madrid",40.104613,-3.483749
218,villaconejos,a10610da706d451630cc87f0,164.0,Restaurante la Farola,13065.0,Restaurant,"Carretera de Chinchón, 25, 28360 Villaconejos Madrid",40.104836,-3.483426
219,venturada,58e94336ebf0280f6ef2d6b7,27.0,Ventura & Jones,13006.0,Beer Bar,"Calle del Parador, 15, 28729 Venturada Comunidad de Madrid",40.798281,-3.62071
220,venturada,4db096ad93a0615768446d16,125.0,Ribeiriño,13302.0,Mediterranean Restaurant,"Parador, 2, 28729 Venturada Comunidad de Madrid",40.798208,-3.62205
221,venturada,91bd5c793a4243ed665973fc,1603.0,Restaurante Genova,13034.0,Café,"Calle Puerto de Despeñaperros, s/n, 28729 Venturada Madrid",40.788418,-3.607127
222,venturada,4c9e5e77ca44236a2e382a99,1875.0,El Coto,13003.0,Bar,"Calle Melquiades Biencinto, 13, 28729 Madrid Comunidad de Madrid",40.792369,-3.599981
223,vellon-el,5123d7716fc842e50df35863,192.0,Finca los Olivos,13065.0,Restaurant,"Pje. Campillo Alto, 13, 28722 El Vellón Comunidad de Madrid",40.77223,-3.571159
224,vellon-el,5b802bf83d4791002c171717,313.0,La Sidreria,13345.0,Spanish Restaurant,"Magdalena, 48, 28722 El Vellón Comunidad de Madrid",40.766411,-3.585252
225,vellon-el,5263fc31498e16a84442910d,1637.0,El Miura,13345.0,Spanish Restaurant,"Avenida de Madrid, 51, 28710 El Molar Comunidad de Madrid",40.782474,-3.583723
226,vellon-el,5569b49e498e321bf525a9e6,1991.0,Los Nuevos Hornos,13345.0,Spanish Restaurant,"Carretera Nacional I, Km 45, 28723 Pedrezuela Comunidad de Madrid",40.756407,-3.600278
227,velilla-de-san-antonio,109a983626e14af9c158bfa3,46.0,El Lazo Verde,17043.0,Clothing Store,"Calle Miguel Hernández, 2, 28891 Velilla de San Antonio Madrid",40.367275,-3.487969
228,velilla-de-san-antonio,648ee71d1f0641254439e5d4,278.0,Pamel & Ragazzi,17043.0,Clothing Store,"Jarama, 28, 28891 Velilla de San Antonio Comunidad de Madrid",40.366157,-3.49043
229,velilla-de-san-antonio,0b73e2c5d8794b2f4fd74158,631.0,Akkeron Sport,17043.0,Clothing Store,"Calle Henares, 43, 28891 Velilla de San Antonio Madrid",40.367333,-3.494899
230,velilla-de-san-antonio,4dcfb4327d8b975f18ee07da,28.0,Bar el Andaluz,13003.0,Bar,"Plaza de la Constitución, 18, 28891 Velilla de San Antonio Comunidad de Madrid",40.367311,-3.487725
231,velilla-de-san-antonio,4fcb8f67e4b0b0ef0716a20c,37.0,La Toscana,13046.0,Ice Cream Parlor,"Travesía Rinconada, 4 (Plaza De La Constitucion), 28891 Velilla de San Antonio Comunidad de Madrid",40.366818,-3.487475
232,velilla-de-san-antonio,621e37873f3b8279c0ba7a7c,43.0,Bar el Retorno del Andaluz,13302.0,Mediterranean Restaurant,"Plaza de la Constitución, 13, 28891 Velilla de San Antonio Comunidad de Madrid",40.367303,-3.486964
233,velilla-de-san-antonio,4e56b90618a81fe3e5f1606a,43.0,Burguer las Palmeras,13031.0,Burger Joint,"Plaza de la Constitución, 18, 28891 Velilla de San Antonio Comunidad de Madrid",40.367545,-3.48732
234,velilla-de-san-antonio,28422592e66d495d3ca4d63e,174.0,La Granja de Cano,13065.0,Restaurant,"Calle Mayor, 14, 28891 Velilla de San Antonio Madrid",40.36769,-3.485501
235,velilla-de-san-antonio,4e8074479a528a7d4d4fdddd,184.0,Pizzería Mayor,13064.0,Pizzeria,"Calle Republica Dominicana, 11, 28891 Velilla de San Antonio Comunidad de Madrid",40.366248,-3.48573
236,velilla-de-san-antonio,7ffefa99f67b4d09aa8f94f5,211.0,La Bahia de Velilla,13003.0,Bar,"Calle de Doctor Alcorta, 11, 28891 Velilla de San Antonio Madrid",40.366193,-3.485295
237,velilla-de-san-antonio,517c1f2f498ef6c9e4ad063f,218.0,Los Cachorros,13003.0,Bar,"Plaza Perú, 2, 28891 Velilla de San Antonio Comunidad de Madrid",40.366142,-3.48524
238,velilla-de-san-antonio,52ca04754cbd4788867db2c9,282.0,Pollo Que Se,13065.0,Restaurant,"Calle San Sebastian, 10, 28891 Velilla de San Antonio Madrid",40.36898,-3.485107
239,velilla-de-san-antonio,2db944bce906440a8a4508ce,427.0,El Porton de Velilla,13338.0,Seafood Restaurant,"Avenida la Ilustración, 62, 28891 Velilla de San Antonio Madrid",40.370062,-3.484114
240,velilla-de-san-antonio,093deb4f4caf4b8ff8761c17,587.0,La Tahona de Guzman,13002.0,Bakery,"Calle Henares, 28, 28891 Velilla de San Antonio Madrid",40.366649,-3.494348
241,velilla-de-san-antonio,4f85ee7ce4b0cd08a511be57,664.0,La Traviata Express,13064.0,Pizzeria,"Avenida de la Ilustración, 106, 28891 Velilla de San Antonio Comunidad de Madrid",40.371332,-3.481818
242,velilla-de-san-antonio,54f32586498e9a7e4874d4c2,766.0,Arroceria 106,13346.0,Paella Restaurant,"Mayor, 106, 28891 Velilla de San Antonio Comunidad de Madrid",40.371379,-3.480269
243,velilla-de-san-antonio,09b721edbd43496c22eb4a01,4330.0,Quinta San Antonio,13338.0,Seafood Restaurant,"María Zambrano, 7, 28891 Velilla de San Antonio Comunidad de Madrid",40.3703,-3.487757
244,valverde-de-alcala,5aedc7102b984400391258b9,143.0,Bar la Solana,13003.0,Bar,"Calle Mayor, 1, 28812 Valverde de Alcalá Comunidad de Madrid",40.419114,-3.298898
245,valverde-de-alcala,857be1154d7f49793b1fee49,168.0,La Cabaña del Baztan,13338.0,Seafood Restaurant,"Carretera Valverde de Alcalá, 8, 28514 Nuevo Baztán Madrid",40.419548,-3.299553
246,valverde-de-alcala,4d441f413616b60cc1d8e0c2,1590.0,Restaurante Terraza Cruz,13007.0,Beer Garden,"Calle la Plazuela, 9, 28810 Villalbilla Comunidad de Madrid",40.432351,-3.299819
247,valverde-de-alcala,268b27d8862540b4da86d3cf,1594.0,Tahona San Antonio,13002.0,Bakery,"Calle Plazuela, 12, 28810 Villalbilla Madrid",40.432385,-3.299575
248,valverde-de-alcala,b8f336b69cb840dad15d8338,1720.0,Stella Food & Fun,13064.0,Pizzeria,"Calle Alcalá 47, 28810 Villalbilla Comunidad de Madrid",40.433451,-3.301566
249,valverde-de-alcala,5c2229e2f427de002c86d4e9,1598.0,Parque de la Hontanilla,16032.0,Park,28810 Villalbilla Comunidad de Madrid,40.431979,-3.295011
250,valdilecha,4f2467c6e4b0020c2ec55a81,146.0,Asador la Ochava,13026.0,BBQ Joint,"Calle Mayor, 52, 28511 Valdilecha Comunidad de Madrid",40.293957,-3.300655
251,valdilecha,ac373bea3b5b4e0e5a8ca423,255.0,Meson Luna,13065.0,Restaurant,"Astillero, 4, Valdilecha Vizcaya",40.294902,-3.301015
252,valdilecha,cfc236e995f243628f5e9863,261.0,Bar-Pizzería la Estación,13064.0,Pizzeria,"Calle Pinar, 10, 28511 Valdilecha Madrid",40.294965,-3.300988
253,valdilecha,bcccc8edd32f4092ba7a4157,349.0,Hermanos Cristobal Gascuena,13002.0,Bakery,"Calle de la Cruz, 2, 28511 Valdilecha Madrid",40.295038,-3.30294
254,valdetorres-de-jarama,d7d54014cfb942622e1eadf4,14.0,Otoño,13325.0,Portuguese Restaurant,"Calle Madrid, 74, 28150 Valdetorres de Jarama Madrid",40.695572,-3.514793
255,valdetorres-de-jarama,1062f5bf7a3d421a239dfe17,92.0,American Ribs,13065.0,Restaurant,"Plaza de José Antonio, 5, 28150 Valdetorres de Jarama Comunidad de Madrid",40.69586,-3.513595
256,valdetorres-de-jarama,3b950a90f2cc474d32ea2a39,130.0,Bar el Catalán,13003.0,Bar,"Soto, 2, 28150 Valdetorres de Jarama Madrid",40.696826,-3.514643
257,valdetorres-de-jarama,4caa02a414c337042466e33b,183.0,Mesón Valdetorres,13338.0,Seafood Restaurant,"Plaza Constitución, 7, 28150 Valdetorres de Jarama Comunidad de Madrid",40.694996,-3.512657
258,valdetorres-de-jarama,4ce92af2948f224b5dbaf45d,185.0,Kodiak,13003.0,Bar,"Calle Calvario, 2, 28150 Valdetorres de Jarama Comunidad de Madrid",40.698222,-3.515969
259,valdepielagos,06f43da9f7e5417212320d82,22.0,Cafeteria Jamez,13003.0,Bar,"Calle Cubillo, 11, 28170 Valdepiélagos Madrid",40.761004,-3.465363
260,valdeolmos-alalpardo,578d1a91498e916cffc3fa87,58.0,Hollister Co,17043.0,Clothing Store,"Nacional N-1, 28700 Madrid Comunidad de Madrid",40.638347,-3.453893
261,valdeolmos-alalpardo,4ea2a36e490102dac2af688b,15.0,Angel y Marina,13003.0,Bar,"Callejon Jose Antonio, 7, 28130 Valdeolmos-Alalpardo Comunidad de Madrid",40.638729,-3.45327
262,valdemoro,6a5c6b7a1d824c0623023352,439.0,Lenceria Carmen Diaz,17043.0,Clothing Store,"Pasaje de Colon, 2, 28340 Valdemoro Madrid",40.191686,-3.675051
263,valdemoro,777cc6d8519648e6d0b89828,554.0,Stratford Royal Taylor,17043.0,Clothing Store,"Calle las Vacas Nº 19, 28341 Valdemoro Madrid",40.191525,-3.676949
264,valdemoro,07f8915a8e324fcafdce782c,734.0,Pitufo,17043.0,Clothing Store,"Estrella de Elola, 2, 28341 Valdemoro Madrid",40.191142,-3.679551
265,valdemoro,4e1c651a6284ae9cf27ab2e7,817.0,Pilar Prieto,17043.0,Clothing Store,"Calle San Vicente de Paul 31-33, 28340 Valdemoro Comunidad de Madrid",40.192652,-3.679679
266,valdemoro,63be01a4c34e4ba3774c3644,825.0,Lenceria Carizias,17043.0,Clothing Store,"Avenida Mar Mediterráneo, 107, 28341 Valdemoro Madrid",40.18407,-3.67886
267,valdemoro,205147de554649cd90f23c7f,831.0,Decimas,17043.0,Clothing Store,"Avenida Mar Mediterraneo, 3, 28341 Valdemoro Madrid",40.183905,-3.678776
268,valdemoro,a186301358f24cdda8ad85a3,945.0,Olivo Uniformidad,17043.0,Clothing Store,"Calle Guardia Civil, 10, 28340 Valdemoro Madrid",40.195485,-3.678413
269,valdemoro,57f0e87245784cda1fe8559b,1676.0,Lima Limon,17043.0,Clothing Store,"Calle Neptuno, 47, 28341 Valdemoro Comunidad de Madrid",40.179794,-3.687138
270,valdemoro,0f1060a7ce9743e0047057b7,154.0,Salones Lisboa,12061.0,Private School,"Avenida de Andalucia, 5, 28340 Valdemoro Madrid",40.188893,-3.673249
271,valdemoro,5c42ab2f28e84beecc1da9c0,165.0,La Llave,13034.0,Café,"Calle Osa Menor, 12, 28341 Valdemoro Comunidad de Madrid",40.188529,-3.673326
272,valdemoro,cc1983925d6d4842f7406cde,167.0,Restaurante Ventura,13338.0,Seafood Restaurant,"Avenida Andalucía, Nave, 1, 28343 Valdemoro Madrid",40.188087,-3.67313
273,valdemoro,5a9b062973fe257da65473b2,232.0,Restaurante Merry City,13099.0,Chinese Restaurant,"Avenida de Andalucia, 11, 28341 Valdemoro Comunidad de Madrid",40.190066,-3.673672
274,valdemoro,4dc3eba5ae608779d11382ab,256.0,El Rancho,13383.0,Steakhouse,"San Martín de la Vega, 8, 28343 Valdemoro Comunidad de Madrid",40.191038,-3.671051
275,valdemoro,4b7038aef964a520590c2de3,299.0,El Palacio del Pollo,13145.0,Fast Food Restaurant,"Calle Pozo Chico, 28, 28341 Valdemoro Comunidad de Madrid",40.190083,-3.674351
276,valdemoro,4f2c4e47e4b048e4672d86d4,304.0,Restaurante Casa Jero,13029.0,Brewery,"Paseo del Prado, 4, 28340 Valdemoro Comunidad de Madrid",40.191594,-3.671276
277,valdemoro,a9b3ebd13acd404254ff61bd,362.0,OM Restaurante Hindú,13034.0,Café,"Paseo de la Estacion, 10, 28343 Valdemoro Comunidad de Madrid",40.192047,-3.67139
278,valdemoro,4dd69d01d4c05d5096d4df65,408.0,Tomato Kebap y Pizza,13145.0,Fast Food Restaurant,"Matadero, 2, 28343 Valdemoro Comunidad de Madrid",40.19199,-3.673779
279,valdemoro,4e6bd5c2b61c739ba84a4b3b,489.0,La Fontanilla,13065.0,Restaurant,"Calle Illescas, 2, 28341 Valdemoro Comunidad de Madrid",40.188319,-3.677151
280,valdemoro,94bb524f5e8b4d6a223d81eb,501.0,Sweet & Salty,13035.0,Coffee Shop,"P.º del Prado, 5, Valdemoro Madrid",40.192307,-3.66762
281,valdemoro,4e39891618380f8ec5516800,511.0,100 Montaditos,13334.0,Sandwich Spot,"Calle Estrella de Elola, 27, 28341 Valdemoro Comunidad de Madrid",40.191907,-3.67595
282,valdemoro,4d0cd21d8010548112d41a96,527.0,Chirón,13338.0,Seafood Restaurant,"Calle Alarcón, 27, 28341 Valdemoro Comunidad de Madrid",40.191522,-3.676569
283,valdemoro,83db6950b00e47e2f5d72128,530.0,Arroceria Adri,13065.0,Restaurant,"Paseo Parroco Don Lorenzo, 12, 28341 Valdemoro Madrid",40.186911,-3.677133
284,valdemoro,5fa3ea12c430f570763a078f,546.0,Papa John's Pizza - Disponible a domicilio y a recoger,13064.0,Pizzeria,"Calle de las Vacas, 8, 28341 Valdemoro Comunidad de Madrid",40.191611,-3.67676
285,valdemoro,ceb52d80e4634d40d45cc0c0,573.0,Casa de Extremadura,13065.0,Restaurant,"Calle Chequia, 5, 28341 Valdemoro Madrid",40.184288,-3.674573
286,valdemoro,504bb974e4b03dcfecf105fe,596.0,Casa Andalucia,13010.0,Dive Bar,"Calle Doctor Rogelio Casal Martin, 1, 28340 Valdemoro Comunidad de Madrid",40.184688,-3.675854
287,valdemoro,ee22b994177b7b76aa51ffc7,623.0,Restaurante Butterfly,13347.0,Tapas Restaurant,"Cuesta Valderremata, 6, 28343 Valdemoro Comunidad de Madrid",40.191734,-3.665115
288,valdemoro,60e86beed4c3b866f32251c3,626.0,El Diamante,13003.0,Bar,"Calle Colegio, 18, 28341 Valdemoro Comunidad de Madrid",40.191495,-3.677953
289,valdemoro,7f88585d3dd44dd6cbb2eba7,636.0,Quinito,13345.0,Spanish Restaurant,"Calle de San Vicente de Paul, 7, 28342 Valdemoro Comunidad de Madrid",40.193205,-3.67632
290,valdemoro,4dbdc54c0437955ec0556527,642.0,La Taberna de Sole,13010.0,Dive Bar,"Calle Real, 8, 28341 Valdemoro Comunidad de Madrid",40.190104,-3.678614
291,valdemoro,62c9721ce1f8894f60c2415b,653.0,Sidrería Tierra de Asturias,13065.0,Restaurant,"Calle de las Infantas, 19, 28341 Valdemoro Comunidad de Madrid",40.189567,-3.679068
292,valdemoro,4de3de0118385df2b046666d,676.0,Bar Jaén,13003.0,Bar,"Plaza Nuestra Señora del Rosario, 2, 28340 Valdemoro Comunidad de Madrid",40.18928,-3.679417
293,valdemoro,4d0d45bceea9b60c407c5d3f,695.0,Vendetta,13018.0,Pub,"Dr. Fleming, 26, 28342 Valdemoro Comunidad de Madrid",40.194193,-3.6756
294,valdemoro,505217e3e4b0b0fc416fa7e2,733.0,Panificadora Gonzalez,13002.0,Bakery,"Plaza Cánovas del Castillo, 6, 28340 Valdemoro Comunidad de Madrid",40.19088,-3.679737
295,valdemoro,52b14a11025c4dcf3bcbe484,761.0,Cafeteria Churreria Maife,13003.0,Bar,"Calle San Vicente de Paul, 2, 28342 Valdemoro Comunidad de Madrid",40.193208,-3.678302
296,valdemoro,4d6027041ee8721ea54ca721,763.0,Burger los Cuñaos,13003.0,Bar,"Calle Cristo de la Salud, 6, 28342 Valdemoro Comunidad de Madrid",40.191772,-3.679668
297,valdemoro,4c8a9c0ca92fa093d1de92bf,808.0,La Terraza del Duque,13034.0,Café,"Calle Libertad, 1, 28341 Valdemoro Madrid",40.190799,-3.680686
298,valdemoro,512c9e37e4b0ae1a10bd7cb1,826.0,Valdetapas,13003.0,Bar,"Calle Ruiz de Alda, 10, Valdemoro Comunidad de Madrid",40.191277,-3.680638
299,valdemoro,539cbf9b498e723ddb2da111,851.0,Kebab Delicia Turca,13145.0,Fast Food Restaurant,"Calle Libertad, 12, 28341 Valdemoro Comunidad de Madrid",40.191091,-3.681098
300,valdemoro,4cdf0a11aba88cfabe4546d7,868.0,Casablanca,13345.0,Spanish Restaurant,"Avenida Mar Mediterraneo, 3, 28341 Valdemoro Comunidad de Madrid",40.184225,-3.679405
301,valdemoro,f3460f93aa5a44874772b1dd,869.0,Mar Bravo 2000,13065.0,Restaurant,"Ruiz de Alda, 20, 28342 Valdemoro Comunidad de Madrid",40.191381,-3.681129
302,valdemoro,4d8d0cb63bfef04d90cd7786,869.0,Hua Nan,13099.0,Chinese Restaurant,"Calle Ruiz de Alda, 15 (C. General Martitegui), 28342 Valdemoro Comunidad de Madrid",40.191256,-3.681181
303,valdemoro,4d5ea8c41ee8721e8a019521,870.0,Burger King,13031.0,Burger Joint,"El Reston Paseo del Juncarejo Loc, 55 (Paseo del Juncarejo  Loc 55), 28340 Valdemoro Comunidad de Madrid",40.183097,-3.678277
304,valdemoro,daaa0d34117c4c2fd56baaef,894.0,Obradores de Pasteleria Sanchez,13002.0,Bakery,"Calle Ruiz de Alda, 17, 28342 Valdemoro Comunidad de Madrid",40.191282,-3.681399
305,valdemoro,8a8d20d962a64ff198f69ef0,918.0,Intermedio Pub,13003.0,Bar,"Calle Ruiz de Alda, 24, 28342 Valdemoro Comunidad de Madrid",40.191473,-3.6817
306,valdemoro,46060598723e41ad883b09d9,1039.0,Bolitas del Airon,13338.0,Seafood Restaurant,"P.º Prado, s/n, 28343 Valdemoro Madrid",40.192247,-3.660018
307,valdemoro,5903c1e506fb6079619b1a1b,1099.0,Deltoya Rock bar,13003.0,Bar,"Calle de Miguel Hernandez, 2, 28342 Valdemoro Comunidad de Madrid",40.193019,-3.683187
308,valdemoro,4eae78ad93ad7677a96e1c3d,1111.0,Bar la Ronda,13345.0,Spanish Restaurant,"Paseo Comunidad de Madrid, 9, 28341 Valdemoro Comunidad de Madrid",40.188942,-3.684517
309,valdemoro,13bf6f7017af4a32e27e93bd,1115.0,Bar de tapas la Ronda freiduría,13338.0,Seafood Restaurant,"Paseo Comunidad de Madrid, 9, 28341 Valdemoro Madrid",40.188993,-3.684572
310,valdemoro,4e12194918a84f0f0319e007,1132.0,Alessandre III,13049.0,Diner,"Avenida de Europa, 129, 28341 Valdemoro Comunidad de Madrid",40.178669,-3.671595
311,valdemoro,6314602e161d05364bdf3bc4,1137.0,The Leyton’s,13065.0,Restaurant,"Avenida de Europa, 120, Valdemoro Comunidad de Madrid",40.178633,-3.671839
312,valdemoro,4d7cb349136bf04d87a5638d,1161.0,Taberna el Bu,13003.0,Bar,"Calle Camilo José Cela, 12 (Gregorio Marañon), 28340 Valdemoro Comunidad de Madrid",40.192762,-3.684134
313,valdemoro,16852936c6ca491770625be5,1162.0,El Astronauta Mori,13064.0,Pizzeria,"Avenida Mar Mediterráneo, 74, 28341 Valdemoro Madrid",40.182917,-3.6827
314,valdemoro,57e6de6b498e2033ea12e3fb,1180.0,On Sushi,13065.0,Restaurant,"Avenida Mar Mediterráneo, 74, 28341 Valdemoro Comunidad de Madrid",40.18278,-3.682834
315,valdemoro,4e0f14371838f62321cb992e,1198.0,El Astronauta,13236.0,Italian Restaurant,"Glorieta de los Tritones, 9 (Av del Mar Mediterráneo, 74), 28341 Valdemoro Comunidad de Madrid",40.182956,-3.682836
316,valdemoro,4dcd3184e4cd130e16473b75,1206.0,Bar Restaurante Almanzor,13035.0,Coffee Shop,"Calle Río Manzanares, 23, 28342 Valdemoro Comunidad de Madrid",40.193344,-3.684576
317,valdemoro,ea3efc4ec24b4ae43e991f63,1263.0,El Astronauta,13064.0,Pizzeria,"Avenida Mar Mediterráneo, 73, 28341 Valdemoro Madrid",40.181801,-3.683092
318,valdemoro,4fc1445ce4b045c5b52a2324,1287.0,Burguer la Chimenea,13031.0,Burger Joint,"Avenida Mar Mediterráneo, 75, 28341 Valdemoro Comunidad de Madrid",40.181601,-3.683252
319,valdemoro,51e0625e498eed7d957d461f,1291.0,Restaurante Casilda,13345.0,Spanish Restaurant,"Calle Gaspar Bravo de Sobremonte, 18, 28341 Valdemoro Comunidad de Madrid",40.177242,-3.670897
320,valdemoro,f6d78152895641d30444092f,408.0,Neal Cash Madrid,17114.0,Shopping Mall,"Carretera de Andalucia Autovía A-4, Km 24, 28343 Valdemoro Comunidad de Madrid",40.191955,-3.674023
321,valdemoro,4bb998a6935e9521fc3b2790,831.0,C. C. el reston,17114.0,Shopping Mall,"Avenida Mar Mediterraneo, 3 (Paseo Juncarejo), 28341 Valdemoro Comunidad de Madrid",40.18426,-3.679161
322,valdemoro,4c0a9ab76071a59353dadf32,487.0,Parque Enrique Tierno Galván,16032.0,Park,Valdemoro Comunidad de Madrid,40.185893,-3.675653
323,valdemoro,622c99947707736f718156c1,580.0,Parque Forestal Cerro del Castillo,16032.0,Park,28343 Valdemoro Comunidad de Madrid,40.194067,-3.670847
324,valdemoro,4de94ef47d8b02ee9f2ca631,626.0,Parque Nuestra Señora de Monserrat,16032.0,Park,"Paseo de la estacion, 28340 Valdemoro Comunidad de Madrid",40.193014,-3.666407
325,valdemoro,4e88a4a9775b68cb831a5f26,628.0,Parque de Extremadura,16032.0,Park,,40.193256,-3.666763
326,valdemoro,5198edeb498e01d90691fcf4,641.0,Parque Enrique Tierno Galván,16032.0,Park,Comunidad de Madrid,40.188233,-3.678942
327,valdemoro,57385391498ee39bab92b8b9,793.0,Parque Perros Agility,16033.0,Dog Park,,40.195936,-3.670138
328,valdemoro,4e4eb3ddd164978659bfa738,794.0,Parque Duque de Ahumada,16032.0,Park,"Calle Libertad Numero, 1, 28040 Valdemoro Comunidad de Madrid",40.189898,-3.681218
329,valdemoro,4ec140ad93ad36d7a9b2862e,870.0,Parque Infantil Hojarasca,16032.0,Park,,40.18424,-3.679704
330,valdemoro,4e82e98ad3e37ba06ecd9b7a,872.0,Parque de las Sombras,16032.0,Park,,40.189838,-3.681624
331,valdemoro,534677b2498e4a24df6368c7,1002.0,Parque de las Víctimas del Terrorismo,16032.0,Park,28340 Valdemoro Comunidad de Madrid,40.195431,-3.67958
332,valdemoro,20dc164956194d251ae6f723,1027.0,Parque de las Eras,16032.0,Park,,40.193437,-3.681943
333,valdemoro,4ec62f5077c8be49210e01ca,1111.0,Parque de los Olivos,16032.0,Park,,40.178887,-3.670512
334,valdemoro,61af54fab1a341fbb8f127e8,1126.0,Parque España,16032.0,Park,Valdemoro Comunidad de Madrid,40.18167,-3.680783
335,valdemoro,4e231fb922717a5245dbf345,1141.0,Parque Bolitas del Airón,16032.0,Park,"Paseo del Prado, s/n, 28343 Valdemoro Comunidad de Madrid",40.191593,-3.658462
336,valdemoro,4e652e82ae60e9edf6ebaf32,1148.0,Los Lagos,16032.0,Park,Valdemoro Comunidad de Madrid,40.183308,-3.682841
337,valdemoro,4e9072195c5c4562effeea7c,1424.0,Parque de las Eras,16032.0,Park,Valdemoro Comunidad de Madrid,40.197302,-3.684058
338,valdemoro,340a939d4c974cddb19bc60e,1528.0,Ludoteca Chia Junior,16037.0,Playground,"Avenida Hispanoamérica, 50, 28341 Valdemoro Madrid",40.186211,-3.689097
339,valdemoro,8a460ce6511b485cd89c9ecf,1528.0,Actilud Infantiles,16037.0,Playground,"Avenida Hispano América, 50, 28341 Valdemoro Madrid",40.186211,-3.689097
340,valdemoro,4e823b217beb302d96f2f2cc,1577.0,Guanta,16032.0,Park,28341 Valdemoro Comunidad de Madrid,40.189135,-3.690005
341,valdemoro,4db562290f2cc52c2110f7cc,1673.0,Parque Adolfo Suárez,16032.0,Park,"Antonio Van de Per, 28342 Valdemoro Comunidad de Madrid",40.197692,-3.687404
342,valdemoro,4f593ca7e4b07f0bf59940fb,1676.0,Playground,16037.0,Playground,,40.197617,-3.687511
343,valdemoro,4ecfa77ecc219860f67f592c,1996.0,Avd. del Mar Adriatico,16032.0,Park,,40.175938,-3.687765
344,valdemorillo,4d4fd6de9d49370401a9ba39,50.0,Bar la Plaza,13003.0,Bar,"Plaza Constitución, 5, 28210 Valdemorillo Comunidad de Madrid",40.501369,-4.068247
345,valdemorillo,4f88643fe4b039b144216084,56.0,La Espiga,13025.0,Wine Bar,"Plaza de la Constitución, 13, 28210 Valdemorillo Comunidad de Madrid",40.501509,-4.068496
346,valdemorillo,5f495bc22e33505e405fcbf6,113.0,Casa Manolo,13065.0,Restaurant,"Fuente, 6, 28210 Valdemorillo Comunidad de Madrid",40.50094,-4.067965
347,valdemorillo,ce1a9b89e4e445a9ed045d57,124.0,López Barneo J l,13002.0,Bakery,"Calle la Nava, 27, 28210 Valdemorillo Comunidad de Madrid",40.501129,-4.070267
348,valdemorillo,514e1d0ee4b01417e5fcf583,124.0,La Bodega,13003.0,Bar,"Calle Coches, 5, 28210 Valdemorillo Comunidad de Madrid",40.501833,-4.0679
349,valdemorillo,52dbe0bc498e021a8d42ee4a,135.0,El Alemán,13026.0,BBQ Joint,"Calle de la Fuente, 10, 28210  Comunidad de Madrid",40.500788,-4.067798
350,valdemorillo,a1570646ee42452a4cb5b155,135.0,Cervecería Versalles,13029.0,Brewery,"Calle de la Fuente, 10, 28210 Valdemorillo Madrid",40.500788,-4.067798
351,valdemorillo,e83cf5d49357411a9949e3e4,163.0,Restaurante Paso Real,13338.0,Seafood Restaurant,"Avenida Plaza de Toros, 1, 28210 Valdemorillo Madrid",40.500203,-4.068964
352,valdemorillo,514db4c9e4b0404027d09f80,164.0,La Bodeguilla,13003.0,Bar,"Calle la Fuente, 18, 28210 Valdemorillo Comunidad de Madrid",40.500682,-4.066921
353,valdemorillo,5ebb3016af16140008d5259a,170.0,Vanessa,13065.0,Restaurant,"Calle la Nava, 31, 28210 Valdemorillo Comunidad de Madrid",40.50117,-4.070788
354,valdemorillo,5a24fabbea52481f729d6345,207.0,Las Columnas,13003.0,Bar,"Calle Nueva, 8, 28210 Valdemorillo Comunidad de Madrid",40.499957,-4.067838
355,valdemorillo,523df264498e6fb70aaa85ca,220.0,Criscel,10045.0,Pool Hall,"Calle la Paz, 19, 28210 Valdemorillo Comunidad de Madrid",40.502669,-4.06663
356,valdemorillo,7fafe845b77049c42dbf9d42,282.0,Mesón la Alhambra,13065.0,Restaurant,"Plaza Doña Ana de Palacio, 2, 28210 Valdemorillo Comunidad de Madrid",40.499924,-4.066469
357,valdemorillo,4f198b0de4b0a9795cfb5a8b,297.0,Taberna Atípica la Plazita,13345.0,Spanish Restaurant,"Calle Ángel, 2, 28210 Valdemorillo Comunidad de Madrid",40.499898,-4.06625
358,valdemorillo,4d1554b0e190721e39500e21,300.0,La fragua,13003.0,Bar,"Calle la Fuente, 27, Valdemorillo Comunidad de Madrid",40.49976,-4.066384
359,valdemorillo,fe9ef5a29c43473ab4a20d61,301.0,Costimar,13338.0,Seafood Restaurant,"Calle Coches, 37, 28210 Valdemorillo Comunidad de Madrid",40.504185,-4.067533
360,valdemorillo,e3f28e6166cb45ad59ba0fb1,305.0,La Placita,10000.0,Arts and Entertainment,"Calle de Angel, 2, 28210 Valdemorillo Comunidad de Madrid",40.499847,-4.066194
361,valdemorillo,33318005d54d43ef41768dbb,312.0,Elegido Bar Jardín,13338.0,Seafood Restaurant,"Calle Coches, 37, 28210 Valdemorillo Comunidad de Madrid",40.504158,-4.067314
362,valdemorillo,257c864d6cfa439c071a25fa,313.0,Cafe las Chimeneas,13035.0,Coffee Shop,"Calle la Paz, s/n, 28210 Valdemorillo Madrid",40.501289,-4.065209
363,valdemorillo,4e220b67ae6015b212ac9c7f,358.0,El Fronton,13003.0,Bar,"Pista al Draguillo, 1, 28210 Valdemorillo Madrid",40.500396,-4.065274
364,valdemorillo,bffb6f69179a403c2c50cf13,358.0,Restaurante Cafetería el Frontón,13003.0,Bar,"Calle de la Paz, 57, 28210 Valdemorillo Comunidad de Madrid",40.500396,-4.065274
365,valdemorillo,573b735d498e98cb09c63395,377.0,Mesón los Gallegos,13003.0,Bar,"Calle San Juan, 41, 28210 Valdemorillo Comunidad de Madrid",40.500092,-4.06494
366,valdemorillo,affc0a115e264464d9853587,469.0,Taberna Atipica la Placita 2003,13065.0,Restaurant,"Calle Cruz Verde, 26, 28210 Valdemorillo Madrid",40.497601,-4.067438
367,valdemanco,5690198b498e672d6be1d2b4,141.0,La Posada del Grillo,13065.0,Restaurant,"Plaza Ntra. Sra. del Carmen, 3, 28729 Valdemanco Comunidad de Madrid",40.872502,-3.663011
368,valdemanco,34bbb353321942e3167edd9d,234.0,Obrador Sierra de Madrid,13039.0,Deli,"Baile, 15, 28729 Valdemanco Madrid",40.871842,-3.66229
369,valdemanco,5f9c64852509a065d7c88c35,472.0,Restaurante el Cerrillo,13065.0,Restaurant,"Calle Desvio, 3, 28729 Valdemanco Comunidad de Madrid",40.869557,-3.66226
370,valdemanco,90128fd4112541a8da6a3052,477.0,Hosteleria Martin Cubillo,13065.0,Restaurant,"Avenida Desvio del, 3, 28729 Valdemanco Madrid",40.869471,-3.66245
371,valdemanco,4c6fd0d6d97fa143c2fcf3ca,481.0,Asador Roberto,13383.0,Steakhouse,"Avenida del Desvío, 43, Valdemanco Comunidad de Madrid",40.869833,-3.666921
372,valdelaguna,990573e7510a4ebd5c6ad36d,134.0,Cervecería los Tintos,13003.0,Bar,"Plaza del Valle de la Laguna, 3, 28391 Valdelaguna Madrid",40.161612,-3.367015
373,valdeavero,4e2ebb31aeb7e1b8af9d9780,351.0,Blanco,17043.0,Clothing Store,"Centro Comercial Plaza Norte, 2 (MegaPark), San Sebastián de los Reyes Comunidad de Madrid",40.634058,-3.333855
374,valdeavero,54cbd533498e7db4b0a7d568,1734.0,Mamma Lucia,13064.0,Pizzeria,"Calle Ancha, 26, 19170 Torrejón del Rey Castilla-La Mancha",40.646381,-3.336248
375,valdeavero,f6261bbee5a24a12204ddf1e,1734.0,Casa Calili,13065.0,Restaurant,"Ancha, 32, Torrejón del Rey Guadalajara",40.646335,-3.336575
376,tres-cantos,12105f5956864bfebf6db8de,561.0,Inditex,17043.0,Clothing Store,"Avenida los Artesanos Zade Tres Cantos, 26, 28760 Tres Cantos Madrid",40.60581,-3.699956
377,tres-cantos,575a975438fac1fc41580c7e,658.0,Bodas & Eventos Aiterik,17041.0,Bridal Store,"Sector Oficios, 6, 28760 Tres Cantos Comunidad de Madrid",40.606672,-3.714334
378,tres-cantos,0554f9ab67da4d61c6a8a099,685.0,Lenceria M & C Intimo,17043.0,Clothing Store,"Sec. Oficios, 38, 28760 Tres Cantos Madrid",40.606449,-3.714658
379,tres-cantos,a608048e4c324ae82bf3963c,689.0,Foresta 2011,17043.0,Clothing Store,"Sector Foresta, 43, 28760 Tres Cantos Comunidad de Madrid",40.608416,-3.709988
380,tres-cantos,df7eaf886c9c4615b8caa269,757.0,Zaguero,17043.0,Clothing Store,"Sec. Pueblos, 1, 28760 Tres Cantos Comunidad de Madrid",40.608416,-3.709988
381,tres-cantos,4cc972697151721e11bb6637,784.0,Sfera,17043.0,Clothing Store,"Avenida Labradores, 9, 28760 Tres Cantos Madrid",40.599621,-3.708638
382,tres-cantos,8435ec98fbe948aec4bfe10f,787.0,Women' Secret,17043.0,Clothing Store,"Avenida de los Labradores, 9, 28760 Tres Cantos Madrid",40.599617,-3.708255
383,tres-cantos,55278d36498ed71073126f01,802.0,Calzedonia,17043.0,Clothing Store,"Avenida de los Labradores 9-11, 28760 Tres Cantos Comunidad de Madrid",40.599359,-3.708825
384,tres-cantos,d2c90db705fd445294da1a1f,914.0,Adolfo Domínguez,17043.0,Clothing Store,"Avenida de los Labradores, 9, 28760 Tres Cantos Comunidad de Madrid",40.598849,-3.71073
385,tres-cantos,ac322004269247af56ceecc3,926.0,Osee,17043.0,Clothing Store,"Avenida los Labradores, 9, 28760 Tres Cantos Madrid",40.598938,-3.710922
386,tres-cantos,9f1421c0975d4ce293849d1e,1053.0,Trescalzitos,17043.0,Clothing Store,"Calle de la Nieve, 3, 28760 Tres Cantos Comunidad de Madrid",40.617641,-3.715687
387,tres-cantos,a33be9f3f68942ac4a5a053d,1235.0,Ángeles Beamud,17043.0,Clothing Store,"Avenida de Viñuelas, 20, 28760 Tres Cantos Madrid",40.595575,-3.704513
388,tres-cantos,4c069a75b4aa0f470d5d6462,599.0,El Ambigú,13003.0,Bar,"Calle del Sector Literatos No, 34, 28760 Tres Cantos Comunidad de Madrid",40.608358,-3.713237
389,tres-cantos,5752a954cd10a298332524b4,660.0,Sarah's Coffee House,13034.0,Café,"Sector Foresta, 39, 28760 Tres Cantos Comunidad de Madrid",40.611516,-3.710904
390,tres-cantos,4e42eedb628484fb52901072,757.0,Confitería Holguera,13002.0,Bakery,"Sector Pueblos, 6, 28760 Tres Cantos Comunidad de Madrid",40.611334,-3.712978
391,tres-cantos,5751ef00cd109ddf425753b5,770.0,Seña Bar Restaurante,13003.0,Bar,"Sector de los Pueblos, 36-42, Tres Cantos Comunidad de Madrid",40.610739,-3.713844
392,tres-cantos,55a1766b498e529c461b344b,793.0,La Deliziosa,13064.0,Pizzeria,"Avenida de los Labradores, 9, 28760 Tres Cantos Comunidad de Madrid",40.599621,-3.708638
393,tres-cantos,b028af97623d4d373e066cbd,801.0,Pub Escorpio,13006.0,Beer Bar,"Sector Pueblos, 38, 28760 Tres Cantos Madrid",40.611004,-3.714038
394,tres-cantos,5d2b1977e97aae0023acf839,807.0,Las Gemelas,13003.0,Bar,"Sector Pueblos, 16, 28760 Tres Cantos Comunidad de Madrid",40.611987,-3.712932
395,tres-cantos,4be5c31f2457a59308f7ab15,809.0,El Rincón de Enrique,13065.0,Restaurant,"Sector Embarcaciones, 35, 28760 Tres Cantos Comunidad de Madrid",40.599638,-3.70364
396,tres-cantos,53418ab4498ea93020e1a3fe,809.0,100 Montaditos,13003.0,Bar,"Avenida de los Labradores, 9-11, 28760 Tres Cantos Comunidad de Madrid",40.599457,-3.708554
397,tres-cantos,51508a4ee4b0ac521d949452,810.0,La Sartén,13302.0,Mediterranean Restaurant,"Sector Pueblos, 2, 28760 Tres Cantos Comunidad de Madrid",40.61129,-3.713687
398,tres-cantos,5abbe87b97cf5a3a553eb272,817.0,VIPS CC Tres Cantos,13031.0,Burger Joint,"Avenida de los Labradores 9-11, 28760 Tres Cantos Comunidad de Madrid",40.599565,-3.709429
399,tres-cantos,51332d64e4b0b7da624a05ba,818.0,Capricho,13003.0,Bar,"Calle del Comercio, 3, 28760 Tres Cantos Comunidad de Madrid",40.600353,-3.711707
400,tres-cantos,4cda4e9cd6656a314eaffb3e,870.0,Cafetería Ryc,13065.0,Restaurant,"Sector de los Pueblos, 6, 28760 Tres Cantos Comunidad de Madrid",40.611334,-3.712978
401,tres-cantos,af682f78fc524ea42be283be,871.0,Restaurante Lavellaneda,13003.0,Bar,"Plaza del Toro, 1, 28760 Tres Cantos Comunidad de Madrid",40.605715,-3.716888
402,tres-cantos,4d762a4874eca093f3c6b7a8,879.0,Pan y Vino,13345.0,Spanish Restaurant,"Avenida de la Industria, 33, 28760 Tres Cantos Comunidad de Madrid",40.613206,-3.700821
403,tres-cantos,56b508d0498ecd024e2429eb,909.0,Michael's Burguer,13026.0,BBQ Joint,"Sector Músicos, 14, 28760 Tres Cantos Comunidad de Madrid",40.607072,-3.716852
404,tres-cantos,9269470e763a497ef89e3377,914.0,Trattoria AS Vivendi,13236.0,Italian Restaurant,"Avenida Labradores, 9-11, 28760 Tres Cantos Madrid",40.598896,-3.710403
405,tres-cantos,4c4026315faf76b0a9184820,919.0,Desirée,13145.0,Fast Food Restaurant,"Calle Viento, 7, Tres Cantos Comunidad de Madrid",40.600117,-3.713342
406,tres-cantos,54424aba498e173d88464018,930.0,Restaurante Shusy & Te,13072.0,Asian Restaurant,"Plaza Central, 4 (avda los encuartes), 28760 Tres Cantos Comunidad de Madrid",40.599672,-3.712762
407,tres-cantos,4be677e82457a59333e5ac15,944.0,Churreria la Auténtica,13040.0,Dessert Shop,"Avenida Labradores, 22, 28760 Tres Cantos Comunidad de Madrid",40.598541,-3.710016
408,tres-cantos,4863ed652bac4dd79947808e,957.0,La hipica,13065.0,Restaurant,"Ronda de Valdecarrillo, s/n, Tres Cantos Madrid",40.606557,-3.695187
409,tres-cantos,52869ca5498ee1ae322279f9,969.0,El Trisquel,13347.0,Tapas Restaurant,"Sector Foresta, 43, 28760 Tres Cantos Comunidad de Madrid",40.608901,-3.717615
410,tres-cantos,51619144e4b00bdf25f17ab5,1000.0,McDonald's,13031.0,Burger Joint,"Plaza Toro, s/n, 28760 Tres Cantos Comunidad de Madrid",40.605339,-3.718276
411,tres-cantos,4b6c2838f964a520b7262ce3,1000.0,McDonald's,13031.0,Burger Joint,Tres Cantos Comunidad de Madrid,40.605339,-3.718276
412,tres-cantos,62399e9c2622ca06c520899d,1007.0,Sidrería asturiana El Rincón de Canteli,13345.0,Spanish Restaurant,"Avenida de los Labradores, 7, Tres cantos Comunidad de Madrid",40.598714,-3.712476
413,tres-cantos,e01f846da9f449911c655db3,1016.0,Zico,13065.0,Restaurant,"Avenida Juan Carlos I, 46, 28400 Collado Villalba Madrid",40.597871,-3.702852
414,tres-cantos,4c2b461857a9c9b6c797f567,1037.0,Ibiza,13345.0,Spanish Restaurant,"Avenida de Viñuelas, 45, 28760 Tres Cantos Comunidad de Madrid",40.604228,-3.694637
415,tres-cantos,4c03eb9a39d476b02ab930a7,1101.0,La Venta del Gordo,13345.0,Spanish Restaurant,"Avenida Labradores, 3, 28760 Tres Cantos Comunidad de Madrid",40.598442,-3.714357
416,tres-cantos,4b891738f964a520321c32e3,1106.0,Os Tres Cantos,13338.0,Seafood Restaurant,"Calle Temple, 29, 28760 Tres Cantos Comunidad de Madrid",40.614697,-3.699039
417,tres-cantos,bf05a4cb4d1446d8c75be517,1106.0,Restaurante Os Tres Cantos,13338.0,Seafood Restaurant,"Calle del Temple, 29, 28760 Tres Cantos Madrid",40.614709,-3.698957
418,tres-cantos,4bb103daf964a520f8723ce3,1109.0,Casa Emeterio,13026.0,BBQ Joint,"Sector Embarcaciones, 23, 28760 Tres Cantos Comunidad de Madrid",40.597149,-3.702159
419,tres-cantos,4be04ca7cb81c9b64344658b,1118.0,Cafeteria Bernal,13345.0,Spanish Restaurant,"Avenida Viñuelas Parq. Tecnologico, 31, 28760 Tres Cantos Comunidad de Madrid",40.596965,-3.702621
420,tres-cantos,4be7f5bb947820a19344b4db,1132.0,El Verdi,13064.0,Pizzeria,"Ciudad de México, 2, 28760 Tres Cantos Comunidad de Madrid",40.596482,-3.704744
421,tres-cantos,534a77b9498eee6dc99a323d,1143.0,Bernar,13003.0,Bar,"Avenida de Viñuelas, 31, 28760 Tres Cantos Comunidad de Madrid",40.596726,-3.702645
422,tres-cantos,4b635ef6f964a52023752ae3,1151.0,Cork,13018.0,Pub,"Avenida Vinuelas, 25, 28760 Tres Cantos Comunidad de Madrid",40.596217,-3.703321
423,tres-cantos,56c087c3cd10b9546e51acc9,1162.0,Shoopo HomeBar,13065.0,Restaurant,"Avenida de Viñuelas, 17, 28760 Tres Cantos Comunidad de Madrid",40.596172,-3.705259
424,tres-cantos,57042b96498e7f01ee5713f0,1177.0,Sabor y Sazón Venezolano,13378.0,Venezuelan Restaurant,"Avenida de Viñuelas, 39, 28760 Tres Cantos Comunidad de Madrid",40.596715,-3.701498
425,tres-cantos,5b327dfe6dcf04002c848021,1180.0,Volapié,13345.0,Spanish Restaurant,"Viñuelas, 17, 28760 Tres Cantos Comunidad de Madrid",40.59602,-3.705093
426,tres-cantos,5895ea506cda1c3ed29387b9,1182.0,Contracorriente,13003.0,Bar,"Avenida de Viñuelas, 17, 28049 Tres Cantos Comunidad de Madrid",40.595985,-3.705338
427,tres-cantos,603b318bffd46134e2f4a4fa,1190.0,Taquería los Carnales de 3C,13303.0,Mexican Restaurant,"Avenida de Viñuelas, 45, 28760 Tres Cantos Comunidad de Madrid",40.597029,-3.700137
428,tres-cantos,510a95cee4b0f4aaf978da2d,1196.0,Restaurante Edulis,13345.0,Spanish Restaurant,"Calle Añil, 2, 28760 Tres Cantos Comunidad de Madrid",40.595915,-3.708669
429,tres-cantos,546109c1498e6bb7cec39e54,1203.0,El Encuentro,13027.0,Bistro,"Avenida de Viñuelas, 45, 28760 Tres Cantos Comunidad de Madrid",40.597127,-3.699865
430,tres-cantos,5e49f36ee0c6520008263731,1208.0,Tates,13031.0,Burger Joint,"Avenida de Viñuelas, 45, 28760 Tres Cantos Comunidad de Madrid",40.596854,-3.700134
431,tres-cantos,c60b167a26d74576516e5303,1212.0,Vulcano,13065.0,Restaurant,"Calle Neptuno, 6, 28760 Tres Cantos Madrid",40.597148,-3.699319
432,tres-cantos,561c07d441cc441d41ac59df,1214.0,Trastevere,13064.0,Pizzeria,"Avenida Viñuelas, 45, 28760 Tres Cantos Comunidad de Madrid",40.596975,-3.699699
433,tres-cantos,c19f9c950fd349e58395411a,1214.0,Trattoria Pizzeria Traste,13064.0,Pizzeria,"Avenida de Viñuelas, 45, 28760 Tres Cantos Madrid",40.596889,-3.699889
434,tres-cantos,4d920efe7379b60c8921da07,1249.0,Horno San Bernabé,13002.0,Bakery,"Avenida de Viñuelas, 36, 28760 Tres Cantos Comunidad de Madrid",40.595878,-3.702005
435,tres-cantos,55ba0db4498e728f3bfd224c,1271.0,Go Sushing,13263.0,Japanese Restaurant,"Plaza de la Encina, 10, 28760 Tres Cantos Comunidad de Madrid",40.59523,-3.709342
436,tres-cantos,4b75bbd1f964a5209f202ee3,1272.0,Gambrinus Tres Cantos,13347.0,Tapas Restaurant,"Avenida Labradores, 9-11 (Centro Comercial Tres Cantos), 28760 Tres Cantos Comunidad de Madrid",40.59527,-3.704182
437,tres-cantos,71cce18dd84244b505412ac7,1272.0,La Coleta Pizzería-Hamburguesería,13338.0,Seafood Restaurant,"Calle Mar del Norte, 3, 28760 Tres Cantos Madrid",40.595294,-3.704018
438,tres-cantos,4bed8c28e3562d7f672dfff8,820.0,Ciudad Tres Cantos,17114.0,Shopping Mall,"Avenida de los Labradores, 9-11, 28760 Tres Cantos Comunidad de Madrid",40.599558,-3.708664
439,tres-cantos,4de3e45eae60e7f3ac11f6b5,908.0,Centro Comercial la Rotonda,17114.0,Shopping Mall,"Plaza del Toro, s/n, 28760 Tres Cantos Comunidad de Madrid",40.605355,-3.717347
440,tres-cantos,4bf8fc53508c0f47d6fd3e31,244.0,Parque Central,16032.0,Park,28760 Tres Cantos Comunidad de Madrid,40.607803,-3.708941
441,tres-cantos,5b798d83b1538e002c2ce28d,542.0,Parque Antonio López,16032.0,Park,28760 Tres Cantos Comunidad de Madrid,40.610468,-3.710426
442,tres-cantos,4dd7c065c65bee535ab936e6,606.0,Parque Infantil Literatos 1,16037.0,Playground,"Sector de los Literatos, 28, 28760 Tres Cantos Comunidad de Madrid",40.608659,-3.713187
443,tres-cantos,525e617c11d258276696751d,666.0,Parque Central Tres Cantos,16032.0,Park,Tres Cantos Comunidad de Madrid,40.610314,-3.712718
444,tres-cantos,4dc67077d4c0ad9c0fa0fa2a,676.0,Bike Park Tres Cantos,16032.0,Park,Tres Cantos Comunidad de Madrid,40.612526,-3.704718
445,tres-cantos,4f5e1f4ce4b06784fa05d4f7,722.0,Parque infantil del castillo,16037.0,Playground,,40.602591,-3.713294
446,tres-cantos,4d6a35dd2acd6ea864b143c0,768.0,Parque Infantil Descubridores 1,16037.0,Playground,,40.609678,-3.714676
447,tres-cantos,4f21779ee4b0c3e5ef253ad0,786.0,Parque Infantil Pza Constitucion,16037.0,Playground,Tres Cantos Comunidad de Madrid,40.599933,-3.709735
448,tres-cantos,4e0c9da66284f2bbda5ae395,865.0,Palmera Saharaui,16032.0,Park,"Avda del Parque, 28760 Tres Cantos Comunidad de Madrid",40.608476,-3.716489
449,tres-cantos,4d63e80ea45b548118e8062d,1009.0,Parque Infantil Artesanos 2,16037.0,Playground,"Artesanos, 64, Tres Cantos Comunidad de Madrid",40.615313,-3.709837
450,tres-cantos,525bdbe311d2bece4f937855,1011.0,Embarcaciones,16037.0,Playground,Comunidad de Madrid,40.597946,-3.702744
451,tres-cantos,4dadc8a66a23037eec97bff3,1038.0,Parque Infantil Embarcaciones 4,16037.0,Playground,Tres Cantos Comunidad de Madrid,40.597743,-3.702522
452,tres-cantos,4fba70597beb503189b7f71a,1223.0,El caballito de Laura,16037.0,Playground,"Calle del Fuego, 1, 28770 Tres Cantos Comunidad de Madrid",40.61324,-3.718085
453,tres-cantos,4d9b18f93a32a093ef688a19,1368.0,Parque,16032.0,Park,,40.611853,-3.691872
454,tres-cantos,55199ca7498efa51483c6a4d,1484.0,Parque de las Siete Leguas,16032.0,Park,Comunidad de Madrid,40.613773,-3.721316
455,tres-cantos,4dc96df9d164c28eea836b09,1531.0,Mini Parque,16037.0,Playground,"Calle del Tagarral, 10, 28760 Tres Cantos Comunidad de Madrid",40.593553,-3.700608
456,tres-cantos,520a60a111d2957a64b70fb5,1540.0,Parque Sector Islas,16032.0,Park,,40.592973,-3.703003
457,tres-cantos,4bf96cc55317a593b63b017f,1554.0,Parque Infantil,16037.0,Playground,,40.593134,-3.701476
458,tres-cantos,5221e29811d2729e83a4eda8,1926.0,Parque de los Alcornocales,16032.0,Park,Comunidad de Madrid,40.591478,-3.700334
459,torres-de-la-alameda,ff9e8dd2e1894bf97f6c0ac8,1427.0,Comercializaciones Nauticas Yatemar,17043.0,Clothing Store,"Calle París, 42, 28813 Torres de la Alameda Madrid",40.40985,-3.374136
460,torres-de-la-alameda,4e7cf0790aafcfb3b124f0ba,149.0,Mayor Pizzeria,13064.0,Pizzeria,"Ronda Santa Susana, 14, 28813 Torres de la Alameda Comunidad de Madrid",40.408094,-3.364262
461,torres-de-la-alameda,4d25d576bcc1224b3744941b,241.0,Restaurante Caminito,10000.0,Arts and Entertainment,"Calle Sauces N, 2, 28813 Torres de la Alameda Comunidad de Madrid",40.400636,-3.358575
462,torres-de-la-alameda,513930c3e4b0fe6eb82b2ca5,247.0,Pub Velazquez 3 Cafe,13009.0,Cocktail Bar,"Calle Velázquez N, 3 (3), 28813 Torres de la Alameda Comunidad de Madrid",40.40707,-3.360343
463,torres-de-la-alameda,4db6ca366e8179a913aa3ddb,281.0,La Taberna,13065.0,Restaurant,"Calle de las Escuelas, 3, 28813 Torres de la Alameda Comunidad de Madrid",40.404621,-3.360239
464,torres-de-la-alameda,5183b3fd498eb65be42a9675,291.0,El Pajar del Moral,13345.0,Spanish Restaurant,"P.º los Pozos, 29, 28813 Torres de la Alameda Comunidad de Madrid",40.404148,-3.362733
465,torres-de-la-alameda,52601478498e5b07f41834a3,330.0,Bar Granada,10032.0,Night Club,"Calle Granada, 8, 28813 Torres de la Alameda Madrid",40.406615,-3.359008
466,torres-de-la-alameda,53662aac498eeb439fdfaace,427.0,Delicias,13002.0,Bakery,"Calle San Juan, 20, 28813 Torres de la Alameda Comunidad de Madrid",40.405262,-3.363558
467,torres-de-la-alameda,54bf680c498e5948f8039199,500.0,El Ricon de Odin,13065.0,Restaurant,"P.º los Pozos, 19, 28813 Torres de la Alameda Comunidad de Madrid",40.405684,-3.364295
468,torres-de-la-alameda,cc7ac0aee2d04cd70c5f2ef6,700.0,La Pared,13338.0,Seafood Restaurant,"Madrid, 5, 28813 Torres de la Alameda Comunidad de Madrid",40.408397,-3.363369
469,torres-de-la-alameda,12f86d8a007d4e8ac2ab2326,715.0,Los Arcos,13065.0,Restaurant,"Carretera Alcalá de Henares-Loeches, Km 3,3, 28813 Torres de la Alameda Madrid",40.40809,-3.363882
470,torres-de-la-alameda,5af32d2dc0af570039bcf6e6,836.0,Hostal y Restaurante la Pared,13345.0,Spanish Restaurant,"Ronda de las Conejeras, 2, 28813 Torres de la Alameda Comunidad de Madrid",40.406661,-3.36854
471,torres-de-la-alameda,4748993432d640c9f165c867,1156.0,Los Torreones,13338.0,Seafood Restaurant,"Atenas, 1, 28813 Torres de la Alameda Comunidad de Madrid",40.407794,-3.372107
472,torres-de-la-alameda,22962c4685fb45333c96afdd,1301.0,Sercaib Catering Iberica,13065.0,Restaurant,"Calle Lisboa, 9, 28813 Torres de la Alameda Comunidad de Madrid",40.409893,-3.37343
473,torres-de-la-alameda,538d938a498e7360cc2c174d,1436.0,La Taberna de Maure,13035.0,Coffee Shop,"Calle de Madrid, 7, 28813 Torres de la Alameda Comunidad de Madrid",40.408354,-3.373932
474,torres-de-la-alameda,777d1063530048b051e4b0b1,1614.0,Tonelería Madrileña,13003.0,Bar,"Calle Roma Nº 9, 28813 Torres de la Alameda Madrid",40.410017,-3.376663
475,torremocha-de-jarama,ceae8ed4d72444aa2460b1c9,44.0,Asador San Isidro,13003.0,Bar,"Plaza San Isidro, 5, 28189 Torremocha de Jarama Madrid",40.835737,-3.497204
476,torrelodones,84a6c6c1247d49d8ead5a309,906.0,Producciones y Promociones Cicruz,11006.0,Audiovisual Service,"Calle Cedro, 8, 28250 Torrelodones Comunidad de Madrid",40.584221,-3.926576
477,torrelodones,9748a3d568cd45d749e14104,1426.0,Amaranta,11006.0,Audiovisual Service,"Avenida Peñalar del, 29, 28250 Torrelodones Comunidad de Madrid",40.581532,-3.913182
478,torrelodones,28a1bc4af4f448f3eda7eb6f,128.0,Angara,17043.0,Clothing Store,"Calle José Sánchez Rubio, 1, 28250 Torrelodones Madrid",40.577432,-3.928733
479,torrelodones,69eaa0ebcffb4a4608715016,160.0,Jack & Jones,17043.0,Clothing Store,"Avenida Fontanilla, s/n, 28250 Torrelodones Madrid",40.577315,-3.929934
480,torrelodones,c5d1cef93ed74458012efb03,309.0,Lulu & Frank,17043.0,Clothing Store,"Plaza Iglesia, 2, 28250 Torrelodones Comunidad de Madrid",40.577315,-3.929934
481,torrelodones,8bd9d892960b400ea3fa10d5,1069.0,Diseño Mediterráneo,17043.0,Clothing Store,"Avenida de la Fontanilla, 6, 28250 Torrelodones Madrid",40.568473,-3.921198
482,torrelodones,4d8f70711716a143c5764af7,1090.0,Pull & Bear,17043.0,Clothing Store,"Avenida Fontanilla, s/n, 28250 Torrelodones Comunidad de Madrid",40.568608,-3.920681
483,torrelodones,4e148f67e4cd473c9690e216,1090.0,Oysho,17043.0,Clothing Store,"Avenida de la Fontanilla, s/n, 28250 Torrelodones Comunidad de Madrid",40.577315,-3.929934
484,torrelodones,26f9894c5b334fb1f7a2d55d,1105.0,Etam,17043.0,Clothing Store,"Avenida Fontanilla, s/n, 28250 Torrelodones Madrid",40.568456,-3.920514
485,torrelodones,431f034b033c4800e0516180,1130.0,New Caro,17043.0,Clothing Store,"Avenida de la Fontanilla, s/n, 28250 Torrelodones Madrid",40.567918,-3.92097
486,torrelodones,582b05b0e9e6fe7026962dab,1139.0,Zona peques,17042.0,Children's Clothing Store,"Avenida de la Fontanilla, 1, 28250 Torrelodones Comunidad de Madrid",40.567793,-3.921023
487,torrelodones,4e666d69c65b2c98d6590309,1139.0,Décimas,17043.0,Clothing Store,"C.C. Espacio Torrelodones Avenida de la Fontanilla, 1, 28250 Torrelodones Comunidad de Madrid",40.567981,-3.920944
488,torrelodones,3e94bf8c4b034ca9362ebf03,1139.0,Claire's,17043.0,Clothing Store,"Avenida Fontanilla, s/n, 28250 Torrelodones Madrid",40.567793,-3.921023
489,torrelodones,28aa951e7ee3485af2110038,1139.0,Paco Martinez,17043.0,Clothing Store,"Avenida Fontanilla, s/n, 28250 Torrelodones Madrid",40.567793,-3.921023
490,torrelodones,5d643f61ffec4e0007a55f51,1147.0,Okaïdi - Obaïbi,17042.0,Children's Clothing Store,"Avenida de la Fontanilla, 1, 28250 Torrelodones Comunidad de Madrid",40.567742,-3.920967
491,torrelodones,4d186f26e190721e71d72121,1152.0,Massimo Dutti,17043.0,Clothing Store,"Avenida de la Fontanilla, 99, 28250 Torrelodones Comunidad de Madrid",40.568202,-3.920236
492,torrelodones,4ede040b0e011b46f29e3226,1153.0,Calzedonia,17043.0,Clothing Store,"Avenida de la Fontanilla, 1, 28250 Torrelodones Comunidad de Madrid",40.568089,-3.920207
493,torrelodones,4c9f92e203133704e87d73d5,1175.0,Gocco,17042.0,Children's Clothing Store,"Avenida de la Fontanilla, s/n, 28250 Torrelodones Comunidad de Madrid",40.566543,-3.920318
494,torrelodones,4cfe6d1c20fe3704e15b65f8,1179.0,H&M,17043.0,Clothing Store,"Avenida de la Fontanilla, s/n, 28250 Torrelodones Comunidad de Madrid",40.568053,-3.920453
495,torrelodones,4d8f74a3fa943704f80b1bc6,1205.0,Sfera,17043.0,Clothing Store,"Avenida de la Fontanilla, s/n, 28250 Torrelodones Comunidad de Madrid",40.568581,-3.920462
496,torrelodones,4f96f3f7e4b0dc75e5b01918,1707.0,Promod,17043.0,Clothing Store,"Avenida de la Fontanilla, s/n, 28250 Torrelodones Madrid",40.565642,-3.914013
497,torrelodones,5bdfb449c9a7428fd4757a30,31.0,La Cocina de Antonia,13145.0,Fast Food Restaurant,"Plaza de la Constitución, 9, 28250 Torrelodones Comunidad de Madrid",40.576113,-3.928902
498,torrelodones,4cd7d2c0da85224b843b49ca,35.0,Cafetería Plaza,13003.0,Bar,"Plaza de la Constitución, 5, 28250 Torrelodones Comunidad de Madrid",40.575952,-3.9292
499,torrelodones,60f03b588e91d07cdfa1ee11,37.0,La Bernardina,13345.0,Spanish Restaurant,"Calle Real, 1, 28250 Torrelodones Comunidad de Madrid",40.575961,-3.928735
500,torrelodones,51bb6f4b498e44a16646a504,39.0,Restaurante la Mascotte,13302.0,Mediterranean Restaurant,"Calle Real, 5, 28250 Torrelodones Comunidad de Madrid",40.575871,-3.928542
501,torrelodones,4cc931f241e75481eafc5a84,50.0,Churrería Pastorcito Chocolateria,13034.0,Café,"Carnicería, 2, 28250 Torrelodones Comunidad de Madrid",40.576728,-3.928721
502,torrelodones,5e504f36f8485b0008ce6c89,59.0,Smile At Life,13305.0,Burrito Restaurant,"Calle Real, 2, 28250 Torrelodones Comunidad de Madrid",40.575773,-3.928814
503,torrelodones,571a2e26498e0c3516322e53,59.0,La Cuchara de Madera,13134.0,Comfort Food Restaurant,"Calle Real, 2, Torrelodones Comunidad de Madrid",40.575773,-3.928814
504,torrelodones,4df3893dfa76abc3d86d22c6,61.0,La Posada,13338.0,Seafood Restaurant,"Real, 4, 28250 Torrelodones Comunidad de Madrid",40.575871,-3.928542
505,torrelodones,4c4b3e42bad7a593e59098ab,61.0,El Jardín de la Posada,13338.0,Seafood Restaurant,"Calle Real, 4, 28250 Torrelodones Madrid",40.575683,-3.928621
506,torrelodones,4c8c21f95e048cfaf53bcacd,67.0,L'Suite,13065.0,Restaurant,"Calle Juan Van Halen, 22, Torrelodones Comunidad de Madrid",40.57671,-3.928037
507,torrelodones,435c38789db04f81fc27d4c8,70.0,La Galeria de Van Halen,13035.0,Coffee Shop,"Juan Van Halen, 6, 28250 Torrelodones Comunidad de Madrid",40.576916,-3.928642
508,torrelodones,4d21cd3ebdd7a0933956f8ce,76.0,El Caballo Goloso,13002.0,Bakery,"Calle José Sánchez Rubio, 2, 28250 Torrelodones Comunidad de Madrid",40.576844,-3.929133
509,torrelodones,62386bc027611611256d65c0,76.0,Agra Mahal,13199.0,Indian Restaurant,"Calle Juan Van-Halen, 4, 28250 Torrelodones Comunidad de Madrid",40.576916,-3.928642
510,torrelodones,4eb1939602d5c1a5e44e1f36,85.0,Telepizza,13064.0,Pizzeria,"Calle Real, 13, 28250 Torrelodones Comunidad de Madrid",40.575705,-3.928075
511,torrelodones,4dcdc60b8877851243e790bb,86.0,Baskerville Irish Tavern,13018.0,Pub,"Calle Juan Van Halen, 24, 28250 Torrelodones Comunidad de Madrid",40.576698,-3.928119
512,torrelodones,b7597de0556f42e96c593536,88.0,Sayoa Pinchos,13065.0,Restaurant,"Calle Juan Van - Halen, 10, 28250 Torrelodones Madrid",40.577065,-3.928426
513,torrelodones,4cb36da26c26952194dcb9d9,93.0,El Doblao,13003.0,Bar,"Calle Juan Van Hallen, 1, 28250 Torrelodones Comunidad de Madrid",40.577027,-3.928288
514,torrelodones,4b42e28f7cc04fe717808a82,93.0,Tabernas Costa del Sol,13065.0,Restaurant,"Calle Juan Van-Halen, 1, 28250 Torrelodones Madrid",40.577116,-3.928481
515,torrelodones,54a154a9498e996545cbef5f,95.0,RqueR,13057.0,Gastropub,"Camino de Valladolid, 20, 28250 Torrelodones Comunidad de Madrid",40.575459,-3.928946
516,torrelodones,58af06629435a966c755b629,95.0,Bocahito Gastro Bar,13276.0,Sushi Restaurant,"Real, 17, 28250 Torrelodones Comunidad de Madrid",40.575615,-3.927882
517,torrelodones,54b1893f498e9528817d778c,95.0,Sushi Aki Bar,13263.0,Japanese Restaurant,"Calle Real, 17, 28250 Torrelodones Comunidad de Madrid",40.575576,-3.927744
518,torrelodones,58223b37bcf73e3ee5547d6f,95.0,Océano Pacífico,13263.0,Japanese Restaurant,"Calle Juan Van-Halen, 5, 28250 Torrelodones Comunidad de Madrid",40.576988,-3.928151
519,torrelodones,e8adccd0379c42e88d0ffb74,97.0,Solitario,13338.0,Seafood Restaurant,"Vía Servicio N-iv, Km 32, 28250 Torrelodones Madrid",40.576283,-3.929753
520,torrelodones,4be904f56af1ef3b0db71b96,99.0,El Toro,13347.0,Tapas Restaurant,"Calle Camino de Valladolid, 20, 28250 Torrelodones Comunidad de Madrid",40.57537,-3.928753
521,torrelodones,56fc33e7498e10a55f84010f,111.0,Karim Kebab,13288.0,Kebab Restaurant,"Camino de Valladolid, 14, 28250 Torrelodones Comunidad de Madrid",40.57528,-3.92856
522,torrelodones,5209304b11d2f3fc90f25260,111.0,La Atalaya de Sara,13003.0,Bar,"Cmno. de Valladolid, 14, 28250 Torrelodones Comunidad de Madrid",40.57528,-3.92856
523,torrelodones,44989e8729c748015a2b80fc,111.0,Distribuidora Internacional de Alimentacion,13065.0,Restaurant,"Calle Real, 18, 28250 Torrelodones Madrid",40.57534,-3.928151
524,torrelodones,5afe3311464d65002c0629cf,121.0,Taberna Andaluza Triana,13345.0,Spanish Restaurant,"Calle Real, 23, 28250 Torrelodones Comunidad de Madrid",40.57555,-3.927525
525,torrelodones,d8d9cb9b85024620a6034feb,148.0,Torre Bistró,13065.0,Restaurant,"Calle Camino de Valladolid, 15, 28250 Torrelodones Comunidad de Madrid",40.57548,-3.930013
526,torrelodones,4e0e1c73ae603a50b53f8379,149.0,Marisquería la Marisma,13338.0,Seafood Restaurant,"Calle del Camino de Valladolid, 15, 28250 Torrelodones Comunidad de Madrid",40.57553,-3.930068
527,torrelodones,4f8eb9a3e4b0d3d2c9b90df9,149.0,Jau Jau,13099.0,Chinese Restaurant,"Calle Cam. de Valladolid, 15, Torrelodones Comunidad de Madrid",40.575871,-3.930156
528,torrelodones,4b92e969f964a5205c2634e3,151.0,La Casita,13065.0,Restaurant,"Camino de Valladolid, 10, 28250 Torrelodones Madrid",40.575024,-3.927899
529,torrelodones,27709a6ebde2448c7b4ff27c,183.0,Tse Yang,13099.0,Chinese Restaurant,"Carretera N-vi Madrid-la Coruña, Km 28, 28250 Torrelodones Madrid",40.576428,-3.930767
530,torrelodones,50bbd1d7e4b0ecc0b0dbf699,187.0,El Encuentro,13003.0,Bar,"Plaza de la Iglesia, 2, 28250 Torrelodones Comunidad de Madrid",40.57644,-3.930686
531,torrelodones,4da8a76a4b22e9f40e0a58dc,188.0,Restaurante Esmaspizza,13064.0,Pizzeria,"Calle Real, 33, 28250 Torrelodones Comunidad de Madrid",40.575305,-3.926782
532,torrelodones,5b11828725ecca002c7bf3e0,188.0,Beermanía,13006.0,Beer Bar,"Calle Real, 33, 28250 Torrelodones Comunidad de Madrid",40.575305,-3.926782
533,torrelodones,4fcbb899e4b0881ba408ba84,188.0,393 All In,13065.0,Restaurant,"Calle Real, 33, 28250 Torrelodones Comunidad de Madrid",40.57555,-3.927525
534,torrelodones,6f70e3e1db5d4cd70a69aa44,188.0,Es+Pizza,13064.0,Pizzeria,"Real, 33-35, 28250 Torrelodones Madrid",40.575305,-3.926782
535,torrelodones,50c87d11e4b0c8e85b6eba7d,194.0,La Dehesa Gourmet,13039.0,Deli,"Nogal, 1, 28250 Torrelodones Comunidad de Madrid",40.575611,-3.930726
536,torrelodones,4dbee359cda109aa6cd45dbc,212.0,Torresol,13003.0,Bar,"Camino de Valladolid, 1, 28250 Torrelodones Comunidad de Madrid",40.574544,-3.927563
537,torrelodones,504ddc74e4b0b0e06863f4c6,214.0,Izan Bar Doner Kebap,13356.0,Turkish Restaurant,"Calle Real, 17, 28250 Torrelodones Comunidad de Madrid",40.574445,-3.927835
538,torrelodones,4cdfe0fa3644a093c0f0549f,228.0,Gran China,13099.0,Chinese Restaurant,"Avenida Valladolid, 1, 28250 Torrelodones Comunidad de Madrid",40.574404,-3.927314
539,torrelodones,d93b210375eb4ef849b10aa0,235.0,Maria Jesus Santos Panadero,13003.0,Bar,"Camino de Valladolid, 1, 28250 Torrelodones Madrid",40.574404,-3.927314
540,torrelodones,5506ec68498e1efc0ac71362,252.0,Bar Restaurante Dávila,13134.0,Comfort Food Restaurant,"Calle de Fernando VI, 16, 28004 Madrid Comunidad de Madrid",40.576132,-3.931583
541,torrelodones,54d77dc2498e97d6ba87dab0,287.0,Taberneros,13065.0,Restaurant,"Plaza Epifanio Velasco, 8, 28250 Torrelodones Comunidad de Madrid",40.576663,-3.931975
542,torrelodones,56e02c4f498e77f8895f86bb,287.0,BBQ Burger,13068.0,American Restaurant,"Plaza de Epifanio Velasco, 5, 28250 Torrelodones Comunidad de Madrid",40.576663,-3.931975
543,torrelodones,36711a24f5e041e19ef0ebe0,293.0,Ongay Larumbe j.I,11061.0,Health and Beauty Service,"Plaza Epifanio Velasco, 1, 28250 Torrelodones Madrid",40.576413,-3.93208
544,torrelodones,4c0fead8f1b6a5932d0f7b27,308.0,La Entrada,13302.0,Mediterranean Restaurant,"Camino de Valladolid, 4, 28250 Torrelodones Comunidad de Madrid",40.574219,-3.926162
545,torrelodones,4b9fe280f964a5207c4737e3,375.0,El Pesca,13338.0,Seafood Restaurant,"Avenida Conde de las Almenas, 12, 28250 Torrelodones Comunidad de Madrid",40.576041,-3.924169
546,torrelodones,786b8602a7819bf9a42e5653,385.0,Las Argentinas,13065.0,Restaurant,"Calle Camino de Valladolid, 33, 28250 Torrelodones Comunidad de Madrid",40.576194,-3.933171
547,torrelodones,c856a3bbdd08412dfb5515d2,160.0,Iwall Inshop,11001.0,Advertising Agency,"Avenida de la Fontanilla, 1, 28250 Torrelodones Comunidad de Madrid",40.577315,-3.929934
548,torrelodones,7aa63b0fc8624fb6343d37b9,160.0,Amel Suenos Infantiles,17114.0,Shopping Mall,"Avenida Fontanilla, s/n, 28250 Torrelodones Comunidad de Madrid",40.577315,-3.929934
549,torrelodones,63a05c262fe6f162d8f436d3,1103.0,Lo Más Bárbaro,17114.0,Shopping Mall,"Avenida de la Fontanilla, s/n, 28250 Torrelodones Comunidad de Madrid",40.56868,-3.92019
550,torrelodones,4b632f60f964a520f8682ae3,1123.0,Forum Tlaquepaque,17114.0,Shopping Mall,"Avenida de la Fontanilla, s/n, 28250 Torrelodones Comunidad de Madrid",40.568432,-3.920678
551,torrelodones,0f2634543a9b47e8a02ba5f5,1135.0,Comunidad de Propietarios de Locales C.C. Espacio Torrelodones,17114.0,Shopping Mall,"Avenida de la Fontanilla, s/n, 28250 Torrelodones Madrid",40.568178,-3.9204
552,torrelodones,4ffc784be4b0290718c3fff8,233.0,Parque JH,16032.0,Park,,40.576267,-3.925841
553,torrelodones,5009c8c3e4b0fec2ccffc79c,1844.0,Parque Pradogrande,16032.0,Park,,40.582231,-3.949004
554,torrelodones,4dd6abc6d22d38ef42d5584a,1980.0,Prado Grande,16032.0,Park,Prado Madrid,40.578151,-3.951944
555,torrelaguna,4c712130d7fab1f7aa5e60c9,21.0,Bar la Plaza,13003.0,Bar,"Plaza Mayor, 2, 28180 Torrelaguna Comunidad de Madrid",40.827727,-3.538113
556,torrelaguna,4c828a5147cc224b13d4869f,50.0,La Travesia,13003.0,Bar,"Travesía de la Plaza, 3, 28180 Torrelaguna Madrid",40.827384,-3.538875
557,torrelaguna,e5ea4bc83111492cc6761a69,59.0,Cafe Bar Bambu,13003.0,Bar,"Calle del Cardenal Cisneros, 3, 28180 Torrelaguna Madrid",40.827433,-3.537699
558,torrelaguna,f11fb9a349e249810e75296f,60.0,Amore per la pizza,13064.0,Pizzeria,"Calle del Cardenal Cisneros Numero, 8, 28180 Torrelaguna Madrid",40.8272,-3.538107
559,torrelaguna,4c9d1cbd542b224b1ddce69f,87.0,Alfolí de la Sal,13338.0,Seafood Restaurant,"Calle de la Estrella, 7, 28180 Torrelaguna Comunidad de Madrid",40.828485,-3.538559
560,torrelaguna,4e034bc86284217c7f12293e,105.0,Casa Moraleda,13338.0,Seafood Restaurant,"Calle Cardenal Cisneros, 15, 28180 Torrelaguna Comunidad de Madrid",40.826872,-3.537939
561,torrelaguna,6b21cdd5f0734af706dec13a,130.0,La Casa Perdida,13338.0,Seafood Restaurant,"Plaza de la Paz, 6, 28180 Torrelaguna Comunidad de Madrid",40.827533,-3.536579
562,torrelaguna,b310b9cc5155442ca9d4790c,134.0,Bar Terraza a Donde,13003.0,Bar,"Paseo Varguilla, 7-8, 28180 Torrelaguna Comunidad de Madrid",40.82771,-3.539891
563,torrelaguna,4de24110b3ad5eaa5a9f632b,135.0,Mesón Antigua Casa Patata Bar,13338.0,Seafood Restaurant,"Calle Malacuera, 2, 28180 Torrelaguna Comunidad de Madrid",40.826513,-3.5384
564,torrelaguna,4ddfea937d8b04e50269178b,203.0,Posada del Camino Real,13065.0,Restaurant,"San Francisco, 6 (Calle de la Malacuera), 28180 Torrelaguna Comunidad de Madrid",40.825967,-3.538941
565,torrelaguna,5ebab84ffd30c100088171c5,233.0,Panadería Pastelería Calleja,13002.0,Bakery,"Plaza del Matadero, 8, 28180 Torrelaguna Comunidad de Madrid",40.82786,-3.535516
566,torrelaguna,61f59fc231d2282b0124e2ba,267.0,El Monasterio de Torrelaguna,13065.0,Restaurant,"Calle de San Francisco, 13, 28180 Torrelaguna Comunidad de Madrid",40.825484,-3.539455
567,torrelaguna,59073f5b0f013c7625c05231,267.0,La Cartuja de la Torre,13065.0,Restaurant,"Calle de San Francisco, 13, 28180 Torrelaguna Comunidad de Madrid",40.825484,-3.539455
568,torrelaguna,5145ad9de4b016faeaf0a16c,1881.0,Finca Equilibrium,13065.0,Restaurant,"Carretera Nacional N-320, Km 334,55, 28180 Torrelaguna Comunidad de Madrid",40.821125,-3.558635
569,torrelaguna,5af05fab8c35dc002c2d3368,112.0,Ruda,17114.0,Shopping Mall,"Calle de la Cava, 3, 28180 Torrelaguna Comunidad de Madrid",40.826673,-3.538101
570,torrejon-de-velasco,4d32f04cf8c9224bb5dab5d2,49.0,Casa Goyo,13338.0,Seafood Restaurant,"Plaza de España, 13, 28990 Torrejón de Velasco Comunidad de Madrid",40.186523,-3.777163
571,torrejon-de-velasco,51446826e4b01c6633c2faa8,64.0,Gourmet Jiennense,13039.0,Deli,"Alcalde Luis Torrejón, 4, 28990 Torrejón de Velasco Comunidad de Madrid",40.187231,-3.777553
572,torrejon-de-velasco,4ec5296b29c224ea7c4918c2,116.0,El Circulo,13003.0,Bar,Torrejón de Velasco Comunidad de Madrid,40.186313,-3.775801
573,torrejon-de-velasco,e8dc61e93efa437883eb9e7b,150.0,El Convento de Torrejón de Velasco,13065.0,Restaurant,"Calle de Mediodía, 3, 28990 Torrejón de Velasco Comunidad de Madrid",40.187391,-3.775273
574,torrejon-de-velasco,4df8911488778675b548cfe5,321.0,Horno San Martín,13002.0,Bakery,"Ronda de Zaragoza, 10, 28990 Torrejón de Velasco Comunidad de Madrid",40.186885,-3.773119
575,torrejon-de-velasco,5e49cc13e321dc00088a5abb,1909.0,Arbillas Bar Restaurante,13065.0,Restaurant,"Avenida de Carlos I, 24, 28991 Torrejón de la Calzada Comunidad de Madrid",40.196513,-3.795573
576,torrejon-de-velasco,4d32e3a42e56236a961721b4,321.0,Área Infantil,16037.0,Playground,"Calle Francisco Alonso, 28990 Torrejón de Velasco Comunidad de Madrid",40.186885,-3.773119
577,torrejon-de-velasco,4d3195686c7c721efb3ba756,326.0,Parque Provincias,16037.0,Playground,"Calle Cuenca, 28990 Torrejón de Velasco Comunidad de Madrid",40.186835,-3.773064
578,torrejon-de-la-calzada,32eb08170fee4ca83fa33cf1,25.0,Kekoketa,17043.0,Clothing Store,"Plaza de España, 6, Torrejón de la Calzada Madrid",40.200588,-3.799058
579,torrejon-de-la-calzada,4faceec6e4b0ad9c3fde2caa,74.0,Churreria San Isidro,13003.0,Bar,"Calle Olivar, 3 Bajo (27 Octubre), 28991 Torrejón de la Calzada Comunidad de Madrid",40.200071,-3.798969
580,torrejon-de-la-calzada,7a8a4a10403c4c645fafc610,82.0,Euro Cater,13338.0,Seafood Restaurant,"Décima Avenida Polígono Industrial las Avenidas, 11, 28991 Torrejón de la Calzada Madrid",40.201406,-3.799098
581,torrejon-de-la-calzada,553173de498ef0e6a628253c,86.0,Mesón Casa Pérez,13338.0,Seafood Restaurant,"Calle Real, s/n, 28991 Torrejón de la Calzada Comunidad de Madrid",40.200873,-3.800313
582,torrejon-de-la-calzada,0a3ceff62c54436d0f031a82,129.0,Molokai,13035.0,Coffee Shop,"Calle Castillo, 1, 28991 Torrejón de la Calzada Comunidad de Madrid",40.201102,-3.800751
583,torrejon-de-la-calzada,8a4808e4a31649fef2c5e6c6,129.0,La Bamba,13002.0,Bakery,"Calle Castillo, 1, Torrejón de la Calzada Madrid",40.20104,-3.800777
584,torrejon-de-la-calzada,4fb14f80e4b05b8b56d12686,135.0,El Rincón de Carlos,13022.0,Sports Bar,"Griñón, 4, 28991 Torrejón de la Calzada Comunidad de Madrid",40.201028,-3.800859
585,torrejon-de-la-calzada,512a1115e4b020f71e6fb8c8,141.0,El Asador de Torrejón,13055.0,Fried Chicken Joint,"Calle del Castillo, 3, Torrejón de la Calzada Comunidad de Madrid",40.201141,-3.800888
586,torrejon-de-la-calzada,4d961f3ddaec224b4e5b0f3e,141.0,La Casona D'Pedran,13065.0,Restaurant,"Calle del Castillo, 8 (carretera de griñon), 28991 Torrejón de la Calzada Comunidad de Madrid",40.201141,-3.800888
587,torrejon-de-la-calzada,55e9fc1b498e81cccc9a0d78,147.0,Restaurante Arbillas,13065.0,Restaurant,"Calle San Sebastián, 1, Torrejón de la Calzada Comunidad de Madrid",40.200918,-3.797622
588,torrejon-de-la-calzada,faf9a78cc06d4c3da531c255,156.0,Los Caballos,13338.0,Seafood Restaurant,"Polígono Industrial las Avenidas, Avenida Sexta, 8, 28991 Torrejón de la Calzada Madrid",40.199654,-3.800594
589,torrejon-de-la-calzada,61ac2f850d89f9323bc68f3f,172.0,Darilo's Pizza Torrejón Calzada,13064.0,Pizzeria,"Calle Griñón, 10, 28991 Torrejón de la Calzada Comunidad de Madrid",40.201093,-3.801213
590,torrejon-de-la-calzada,61697d41e521490a1cbc5e43,181.0,Casa Justa,13345.0,Spanish Restaurant,"Calle del Castillo, 8, 28991 Torrejón de la Calzada Comunidad de Madrid",40.201382,-3.801245
591,torrejon-de-la-calzada,4dd16cd1c65bdac713a92cfd,184.0,Zona Ocio ORANGE,13034.0,Café,"Griñón, 6, 28991 Torrejón de la Calzada Comunidad de Madrid",40.200943,-3.801428
